[
{"id":"0","name":"BP Lyndhurst Store (DSS)","short_name":"BP","longitude":"138.349258","latitude":"-30.2873","fuel_provided":[{"fuel_name":"Unleaded","price":102.4},{"fuel_name":"LPG","price":52.2}]},
{"id":"1","name":"BP Darwin City","short_name":"BP","longitude":"130.837399","latitude":"-12.459342","fuel_provided":[{"fuel_name":"Unleaded","price":97.6},{"fuel_name":"LPG","price":52.8}]},
{"id":"2","name":"BP Nightcliff","short_name":"BP","longitude":"130.852098","latitude":"-12.387686","fuel_provided":[{"fuel_name":"Unleaded","price":97.8},{"fuel_name":"LPG","price":56.8}]},
{"id":"3","name":"BP Bagot Road","short_name":"BP","longitude":"130.85574","latitude":"-12.394908","fuel_provided":[{"fuel_name":"Unleaded","price":98.0},{"fuel_name":"LPG","price":53.0}]},
{"id":"4","name":"BP Casuarina Cityway","short_name":"BP","longitude":"130.883743","latitude":"-12.373565","fuel_provided":[{"fuel_name":"Unleaded","price":97.9},{"fuel_name":"LPG","price":56.5}]},
{"id":"5","name":"BP Malak","short_name":"BP","longitude":"130.904288","latitude":"-12.396609","fuel_provided":[{"fuel_name":"Unleaded","price":98.4},{"fuel_name":"LPG","price":57.2}]},
{"id":"6","name":"BP Ludmilla","short_name":"BP","longitude":"130.855968","latitude":"-12.426854","fuel_provided":[{"fuel_name":"Unleaded","price":101.8},{"fuel_name":"LPG","price":56.1}]},
{"id":"7","name":"BP Fannie Bay","short_name":"BP","longitude":"130.838941","latitude":"-12.424784","fuel_provided":[{"fuel_name":"Unleaded","price":102.1},{"fuel_name":"LPG","price":55.4}]},
{"id":"8","name":"DCA Winnelli","short_name":"BP","longitude":"130.8936","latitude":"-12.4261","fuel_provided":[{"fuel_name":"Unleaded","price":98.4},{"fuel_name":"LPG","price":52.6}]},
{"id":"9","name":"Gull 11 Mile","short_name":"BP","longitude":"130.89361","latitude":"-12.426136","fuel_provided":[{"fuel_name":"Unleaded","price":97.1},{"fuel_name":"LPG","price":56.3}]},
{"id":"10","name":"Ausfuel Wishart Trade Counter.","short_name":"BP","longitude":"130.9265","latitude":"-12.4605","fuel_provided":[{"fuel_name":"Unleaded","price":97.3},{"fuel_name":"LPG","price":54.5}]},
{"id":"11","name":"OPT Wishart Rd (Berrimah)","short_name":"BP","longitude":"130.9265","latitude":"-12.4605","fuel_provided":[{"fuel_name":"Unleaded","price":100.2},{"fuel_name":"LPG","price":52.5}]},
{"id":"12","name":"BP Wishart Road","short_name":"BP","longitude":"130.926513","latitude":"-12.460547","fuel_provided":[{"fuel_name":"Unleaded","price":101.0},{"fuel_name":"LPG","price":52.0}]},
{"id":"13","name":"BP Palms Auto Port","short_name":"BP","longitude":"130.970783","latitude":"-12.458603","fuel_provided":[{"fuel_name":"Unleaded","price":101.6},{"fuel_name":"LPG","price":57.1}]},
{"id":"14","name":"BP Howard Springs","short_name":"BP","longitude":"131.03143","latitude":"-12.49653","fuel_provided":[{"fuel_name":"Unleaded","price":102.6},{"fuel_name":"LPG","price":53.8}]},
{"id":"15","name":"Berry Springs Centre","short_name":"BP","longitude":"131.015611","latitude":"-12.701024","fuel_provided":[{"fuel_name":"Unleaded","price":97.7},{"fuel_name":"LPG","price":53.7}]},
{"id":"16","name":"Batchelor Service Centre","short_name":"BP","longitude":"131.024666","latitude":"-13.046233","fuel_provided":[{"fuel_name":"Unleaded","price":101.6},{"fuel_name":"LPG","price":57.9}]},
{"id":"17","name":"Adelaide River Inn","short_name":"BP","longitude":"131.10611","latitude":"-13.23891","fuel_provided":[{"fuel_name":"Unleaded","price":97.9},{"fuel_name":"LPG","price":56.3}]},
{"id":"18","name":"DPT Katherine","short_name":"BP","longitude":"132.252483","latitude":"-14.491415","fuel_provided":[{"fuel_name":"Unleaded","price":98.9},{"fuel_name":"LPG","price":57.7}]},
{"id":"19","name":"BP Katherine","short_name":"BP","longitude":"132.264715","latitude":"-14.466846","fuel_provided":[{"fuel_name":"Unleaded","price":99.8},{"fuel_name":"LPG","price":57.0}]},
{"id":"20","name":"RAAF Base Tindel (DSS)","short_name":"BP","longitude":"132.40219","latitude":"-14.52527","fuel_provided":[{"fuel_name":"Unleaded","price":98.3},{"fuel_name":"LPG","price":52.3}]},
{"id":"21","name":"Gulf Mini Mart","short_name":"BP","longitude":"136.307786","latitude":"-16.073522","fuel_provided":[{"fuel_name":"Unleaded","price":102.0},{"fuel_name":"LPG","price":52.7}]},
{"id":"22","name":"BP Tennant Creek Auto","short_name":"BP","longitude":"134.192328","latitude":"-19.637121","fuel_provided":[{"fuel_name":"Unleaded","price":98.3},{"fuel_name":"LPG","price":57.9}]},
{"id":"23","name":"BP Elliott","short_name":"BP","longitude":"133.544405","latitude":"-17.55354","fuel_provided":[{"fuel_name":"Unleaded","price":99.5},{"fuel_name":"LPG","price":53.5}]},
{"id":"24","name":"Wycliffe Well Holiday Park","short_name":"BP","longitude":"134.23681","latitude":"-20.795416","fuel_provided":[{"fuel_name":"Unleaded","price":98.5},{"fuel_name":"LPG","price":55.6}]},
{"id":"25","name":"Wauchope Hotel","short_name":"BP","longitude":"134.22276","latitude":"-20.641037","fuel_provided":[{"fuel_name":"Unleaded","price":99.4},{"fuel_name":"LPG","price":53.3}]},
{"id":"26","name":"Alice Springs Depot - Afd","short_name":"BP","longitude":"133.87478","latitude":"-23.69421","fuel_provided":[{"fuel_name":"Unleaded","price":97.0},{"fuel_name":"LPG","price":54.5}]},
{"id":"27","name":"Alice Springs Depot","short_name":"BP","longitude":"133.874947","latitude":"-23.694584","fuel_provided":[{"fuel_name":"Unleaded","price":97.4},{"fuel_name":"LPG","price":52.3}]},
{"id":"28","name":"Alice City BP","short_name":"BP","longitude":"133.8783","latitude":"-23.698725","fuel_provided":[{"fuel_name":"Unleaded","price":100.9},{"fuel_name":"LPG","price":56.3}]},
{"id":"29","name":"BP Nhulunbuy","short_name":"BP","longitude":"136.788025","latitude":"-12.18564","fuel_provided":[{"fuel_name":"Unleaded","price":102.8},{"fuel_name":"LPG","price":55.1}]},
{"id":"30","name":"Kakadu Resort","short_name":"BP","longitude":"132.479025","latitude":"-12.67477","fuel_provided":[{"fuel_name":"Unleaded","price":99.1},{"fuel_name":"LPG","price":57.7}]},
{"id":"31","name":"OPT Jabiru","short_name":"BP","longitude":"132.8345","latitude":"-12.6702","fuel_provided":[{"fuel_name":"Unleaded","price":101.0},{"fuel_name":"LPG","price":56.0}]},
{"id":"32","name":"BP Jabiru DSS","short_name":"BP","longitude":"132.834532","latitude":"-12.670233","fuel_provided":[{"fuel_name":"Unleaded","price":98.5},{"fuel_name":"LPG","price":52.7}]},
{"id":"33","name":"BP Connect Regent Street","short_name":"BP","longitude":"151.199523","latitude":"-33.893731","fuel_provided":[{"fuel_name":"Unleaded","price":100.7},{"fuel_name":"LPG","price":54.3}]},
{"id":"34","name":"BP Surry Hills","short_name":"BP","longitude":"151.21329","latitude":"-33.891826","fuel_provided":[{"fuel_name":"Unleaded","price":102.9},{"fuel_name":"LPG","price":57.9}]},
{"id":"35","name":"BP Botany Bay","short_name":"BP","longitude":"151.201259","latitude":"-33.952787","fuel_provided":[{"fuel_name":"Unleaded","price":99.3},{"fuel_name":"LPG","price":57.9}]},
{"id":"36","name":"BP Connect Runway","short_name":"BP","longitude":"151.185244","latitude":"-33.944834","fuel_provided":[{"fuel_name":"Unleaded","price":99.4},{"fuel_name":"LPG","price":54.8}]},
{"id":"37","name":"BP Mascot","short_name":"BP","longitude":"151.195119","latitude":"-33.928368","fuel_provided":[{"fuel_name":"Unleaded","price":98.1},{"fuel_name":"LPG","price":52.6}]},
{"id":"38","name":"BP Connect Woollahra","short_name":"BP","longitude":"151.247456","latitude":"-33.889828","fuel_provided":[{"fuel_name":"Unleaded","price":100.9},{"fuel_name":"LPG","price":56.0}]},
{"id":"39","name":"BP Bondi","short_name":"BP","longitude":"151.264789","latitude":"-33.894211","fuel_provided":[{"fuel_name":"Unleaded","price":98.1},{"fuel_name":"LPG","price":57.6}]},
{"id":"40","name":"BP Edgecliff","short_name":"BP","longitude":"151.2312","latitude":"-33.87691","fuel_provided":[{"fuel_name":"Unleaded","price":100.0},{"fuel_name":"LPG","price":54.9}]},
{"id":"41","name":"BP Express Rose Bay","short_name":"BP","longitude":"151.277113","latitude":"-33.869243","fuel_provided":[{"fuel_name":"Unleaded","price":98.8},{"fuel_name":"LPG","price":56.8}]},
{"id":"42","name":"BP Connect Kingsford","short_name":"BP","longitude":"151.226795","latitude":"-33.919683","fuel_provided":[{"fuel_name":"Unleaded","price":102.3},{"fuel_name":"LPG","price":53.8}]},
{"id":"43","name":"BP Matraville","short_name":"BP","longitude":"151.232013","latitude":"-33.963317","fuel_provided":[{"fuel_name":"Unleaded","price":99.4},{"fuel_name":"LPG","price":52.1}]},
{"id":"44","name":"BP Connect Rozelle","short_name":"BP","longitude":"151.171618","latitude":"-33.865295","fuel_provided":[{"fuel_name":"Unleaded","price":99.7},{"fuel_name":"LPG","price":55.8}]},
{"id":"45","name":"BP Darling Street","short_name":"BP","longitude":"151.17175","latitude":"-33.85919","fuel_provided":[{"fuel_name":"Unleaded","price":102.2},{"fuel_name":"LPG","price":53.1}]},
{"id":"46","name":"BP Connect Sydenham","short_name":"BP","longitude":"151.172786","latitude":"-33.916339","fuel_provided":[{"fuel_name":"Unleaded","price":103.0},{"fuel_name":"LPG","price":53.6}]},
{"id":"47","name":"BP Express St Peters","short_name":"BP","longitude":"151.181","latitude":"-33.909912","fuel_provided":[{"fuel_name":"Unleaded","price":97.7},{"fuel_name":"LPG","price":53.6}]},
{"id":"48","name":"BP Haberfield","short_name":"BP","longitude":"151.140094","latitude":"-33.881689","fuel_provided":[{"fuel_name":"Unleaded","price":100.7},{"fuel_name":"LPG","price":53.6}]},
{"id":"49","name":"BP Connect Camperdown","short_name":"BP","longitude":"151.179814","latitude":"-33.886253","fuel_provided":[{"fuel_name":"Unleaded","price":100.4},{"fuel_name":"LPG","price":54.6}]},
{"id":"50","name":"BP Connect Artarmon","short_name":"BP","longitude":"151.175845","latitude":"-33.811204","fuel_provided":[{"fuel_name":"Unleaded","price":101.4},{"fuel_name":"LPG","price":53.9}]},
{"id":"51","name":"BP Connect Naremburn","short_name":"BP","longitude":"151.201087","latitude":"-33.819985","fuel_provided":[{"fuel_name":"Unleaded","price":98.8},{"fuel_name":"LPG","price":54.3}]},
{"id":"52","name":"BP Express Northwood","short_name":"BP","longitude":"151.172717","latitude":"-33.824457","fuel_provided":[{"fuel_name":"Unleaded","price":101.1},{"fuel_name":"LPG","price":52.2}]},
{"id":"53","name":"BP Express Lane Cove","short_name":"BP","longitude":"151.164228","latitude":"-33.811062","fuel_provided":[{"fuel_name":"Unleaded","price":102.9},{"fuel_name":"LPG","price":55.5}]},
{"id":"54","name":"BP Express Willoughby","short_name":"BP","longitude":"151.195948","latitude":"-33.79384","fuel_provided":[{"fuel_name":"Unleaded","price":99.9},{"fuel_name":"LPG","price":56.1}]},
{"id":"55","name":"BP North Willoughby","short_name":"BP","longitude":"151.19811","latitude":"-33.79781","fuel_provided":[{"fuel_name":"Unleaded","price":98.2},{"fuel_name":"LPG","price":57.1}]},
{"id":"56","name":"BP Express Tower","short_name":"BP","longitude":"151.199333","latitude":"-33.810265","fuel_provided":[{"fuel_name":"Unleaded","price":100.5},{"fuel_name":"LPG","price":52.3}]},
{"id":"57","name":"BP Castle Cove","short_name":"BP","longitude":"151.200921","latitude":"-33.784868","fuel_provided":[{"fuel_name":"Unleaded","price":97.8},{"fuel_name":"LPG","price":54.1}]},
{"id":"58","name":"BP Express Pymble","short_name":"BP","longitude":"151.137913","latitude":"-33.740569","fuel_provided":[{"fuel_name":"Unleaded","price":97.0},{"fuel_name":"LPG","price":56.3}]},
{"id":"59","name":"BP Centre","short_name":"BP","longitude":"151.128563","latitude":"-33.762086","fuel_provided":[{"fuel_name":"Unleaded","price":97.2},{"fuel_name":"LPG","price":53.4}]},
{"id":"60","name":"BP South Turramurra","short_name":"BP","longitude":"151.112172","latitude":"-33.748528","fuel_provided":[{"fuel_name":"Unleaded","price":98.3},{"fuel_name":"LPG","price":56.7}]},
{"id":"61","name":"BP Normanhurst","short_name":"BP","longitude":"151.090054","latitude":"-33.72454","fuel_provided":[{"fuel_name":"Unleaded","price":102.8},{"fuel_name":"LPG","price":56.4}]},
{"id":"62","name":"BP Express Hornsby","short_name":"BP","longitude":"151.099622","latitude":"-33.702162","fuel_provided":[{"fuel_name":"Unleaded","price":102.2},{"fuel_name":"LPG","price":54.6}]},
{"id":"63","name":"BP 2Go Asquith","short_name":"BP","longitude":"151.106536","latitude":"-33.689594","fuel_provided":[{"fuel_name":"Unleaded","price":101.2},{"fuel_name":"LPG","price":52.4}]},
{"id":"64","name":"BP Forestville","short_name":"BP","longitude":"151.214348","latitude":"-33.760094","fuel_provided":[{"fuel_name":"Unleaded","price":98.5},{"fuel_name":"LPG","price":54.5}]},
{"id":"65","name":"BP Express Mosman","short_name":"BP","longitude":"151.233287","latitude":"-33.821175","fuel_provided":[{"fuel_name":"Unleaded","price":101.5},{"fuel_name":"LPG","price":52.6}]},
{"id":"66","name":"BP Connect Mosman","short_name":"BP","longitude":"151.237404","latitude":"-33.83212","fuel_provided":[{"fuel_name":"Unleaded","price":100.1},{"fuel_name":"LPG","price":57.8}]},
{"id":"67","name":"BP Connect Balgowlah","short_name":"BP","longitude":"151.255945","latitude":"-33.795426","fuel_provided":[{"fuel_name":"Unleaded","price":101.9},{"fuel_name":"LPG","price":55.5}]},
{"id":"68","name":"BP Manly","short_name":"BP","longitude":"151.284894","latitude":"-33.790335","fuel_provided":[{"fuel_name":"Unleaded","price":98.4},{"fuel_name":"LPG","price":57.5}]},
{"id":"69","name":"BP North Star","short_name":"BP","longitude":"151.270722","latitude":"-33.775061","fuel_provided":[{"fuel_name":"Unleaded","price":98.6},{"fuel_name":"LPG","price":56.0}]},
{"id":"70","name":"BP Allambie Heights","short_name":"BP","longitude":"151.249664","latitude":"-33.765063","fuel_provided":[{"fuel_name":"Unleaded","price":100.6},{"fuel_name":"LPG","price":54.0}]},
{"id":"71","name":"BP Express Mona Vale","short_name":"BP","longitude":"151.302493","latitude":"-33.680459","fuel_provided":[{"fuel_name":"Unleaded","price":99.7},{"fuel_name":"LPG","price":55.0}]},
{"id":"72","name":"BP Express Peninsula","short_name":"BP","longitude":"151.308952","latitude":"-33.676675","fuel_provided":[{"fuel_name":"Unleaded","price":99.4},{"fuel_name":"LPG","price":55.5}]},
{"id":"73","name":"BP Avalon","short_name":"BP","longitude":"151.334304","latitude":"-33.625918","fuel_provided":[{"fuel_name":"Unleaded","price":100.7},{"fuel_name":"LPG","price":53.2}]},
{"id":"74","name":"BP Denistone East","short_name":"BP","longitude":"151.102923","latitude":"-33.795844","fuel_provided":[{"fuel_name":"Unleaded","price":101.7},{"fuel_name":"LPG","price":55.7}]},
{"id":"75","name":"BP Putney","short_name":"BP","longitude":"151.108376","latitude":"-33.823764","fuel_provided":[{"fuel_name":"Unleaded","price":97.2},{"fuel_name":"LPG","price":56.8}]},
{"id":"76","name":"BP Victoria Road","short_name":"BP","longitude":"151.094711","latitude":"-33.811887","fuel_provided":[{"fuel_name":"Unleaded","price":99.1},{"fuel_name":"LPG","price":52.0}]},
{"id":"77","name":"BP Express West Ryde","short_name":"BP","longitude":"151.071129","latitude":"-33.806779","fuel_provided":[{"fuel_name":"Unleaded","price":100.7},{"fuel_name":"LPG","price":54.8}]},
{"id":"78","name":"BP 2GO Rydalmere","short_name":"BP","longitude":"151.032777","latitude":"-33.810878","fuel_provided":[{"fuel_name":"Unleaded","price":101.0},{"fuel_name":"LPG","price":55.8}]},
{"id":"79","name":"BP Express Dundas","short_name":"BP","longitude":"151.054346","latitude":"-33.798978","fuel_provided":[{"fuel_name":"Unleaded","price":101.4},{"fuel_name":"LPG","price":53.6}]},
{"id":"80","name":"BP Connect Carlingford","short_name":"BP","longitude":"151.047332","latitude":"-33.763745","fuel_provided":[{"fuel_name":"Unleaded","price":99.4},{"fuel_name":"LPG","price":53.8}]},
{"id":"81","name":"BP Connect Thornleigh","short_name":"BP","longitude":"151.08064","latitude":"-33.73094","fuel_provided":[{"fuel_name":"Unleaded","price":102.3},{"fuel_name":"LPG","price":56.5}]},
{"id":"82","name":"BP Epping","short_name":"BP","longitude":"151.07969","latitude":"-33.774769","fuel_provided":[{"fuel_name":"Unleaded","price":98.8},{"fuel_name":"LPG","price":57.8}]},
{"id":"83","name":"BP Oakes","short_name":"BP","longitude":"151.040578","latitude":"-33.754185","fuel_provided":[{"fuel_name":"Unleaded","price":102.0},{"fuel_name":"LPG","price":56.7}]},
{"id":"84","name":"BP Silverwater","short_name":"BP","longitude":"151.04773","latitude":"-33.83627","fuel_provided":[{"fuel_name":"Unleaded","price":98.5},{"fuel_name":"LPG","price":53.2}]},
{"id":"85","name":"BP Connect Ashfield","short_name":"BP","longitude":"151.12688","latitude":"-33.87388","fuel_provided":[{"fuel_name":"Unleaded","price":99.0},{"fuel_name":"LPG","price":57.0}]},
{"id":"86","name":"BP Express Croydon Park","short_name":"BP","longitude":"151.105289","latitude":"-33.896303","fuel_provided":[{"fuel_name":"Unleaded","price":101.3},{"fuel_name":"LPG","price":52.7}]},
{"id":"87","name":"BP Summer Hill","short_name":"BP","longitude":"151.14314","latitude":"-33.892481","fuel_provided":[{"fuel_name":"Unleaded","price":101.0},{"fuel_name":"LPG","price":53.4}]},
{"id":"88","name":"BP Enfield","short_name":"BP","longitude":"151.097802","latitude":"-33.887176","fuel_provided":[{"fuel_name":"Unleaded","price":97.9},{"fuel_name":"LPG","price":52.9}]},
{"id":"89","name":"BP Granville","short_name":"BP","longitude":"151.004064","latitude":"-33.830776","fuel_provided":[{"fuel_name":"Unleaded","price":99.1},{"fuel_name":"LPG","price":55.8}]},
{"id":"90","name":"BP Connect Rosehill","short_name":"BP","longitude":"151.021282","latitude":"-33.819464","fuel_provided":[{"fuel_name":"Unleaded","price":98.9},{"fuel_name":"LPG","price":52.5}]},
{"id":"91","name":"BP Auburn","short_name":"BP","longitude":"151.036","latitude":"-33.84115","fuel_provided":[{"fuel_name":"Unleaded","price":97.3},{"fuel_name":"LPG","price":57.4}]},
{"id":"92","name":"BP Fox Hills","short_name":"BP","longitude":"150.938963","latitude":"-33.795588","fuel_provided":[{"fuel_name":"Unleaded","price":102.9},{"fuel_name":"LPG","price":53.3}]},
{"id":"93","name":"BP Greystanes","short_name":"BP","longitude":"150.937895","latitude":"-33.827929","fuel_provided":[{"fuel_name":"Unleaded","price":100.6},{"fuel_name":"LPG","price":52.8}]},
{"id":"94","name":"BP Wentworthville","short_name":"BP","longitude":"150.971361","latitude":"-33.809206","fuel_provided":[{"fuel_name":"Unleaded","price":102.7},{"fuel_name":"LPG","price":52.8}]},
{"id":"95","name":"BP Mays Hill","short_name":"BP","longitude":"150.989297","latitude":"-33.819403","fuel_provided":[{"fuel_name":"Unleaded","price":100.7},{"fuel_name":"LPG","price":56.3}]},
{"id":"96","name":"BP Connect Seven Hills","short_name":"BP","longitude":"150.952173","latitude":"-33.767219","fuel_provided":[{"fuel_name":"Unleaded","price":99.2},{"fuel_name":"LPG","price":57.8}]},
{"id":"97","name":"BP Seven Hills","short_name":"BP","longitude":"150.941589","latitude":"-33.769212","fuel_provided":[{"fuel_name":"Unleaded","price":99.8},{"fuel_name":"LPG","price":53.7}]},
{"id":"98","name":"BP Sunnyholt","short_name":"BP","longitude":"150.915284","latitude":"-33.751817","fuel_provided":[{"fuel_name":"Unleaded","price":97.5},{"fuel_name":"LPG","price":55.1}]},
{"id":"99","name":"BP Connect Parramatta","short_name":"BP","longitude":"151.005688","latitude":"-33.805076","fuel_provided":[{"fuel_name":"Unleaded","price":102.3},{"fuel_name":"LPG","price":53.8}]},
{"id":"100","name":"BP North Rocks","short_name":"BP","longitude":"151.031907","latitude":"-33.769188","fuel_provided":[{"fuel_name":"Unleaded","price":101.6},{"fuel_name":"LPG","price":56.3}]},
{"id":"101","name":"BP Connect Norwest","short_name":"BP","longitude":"150.943743","latitude":"-33.732197","fuel_provided":[{"fuel_name":"Unleaded","price":100.3},{"fuel_name":"LPG","price":57.4}]},
{"id":"102","name":"BP Baulkham Hills West","short_name":"BP","longitude":"150.974075","latitude":"-33.761617","fuel_provided":[{"fuel_name":"Unleaded","price":99.1},{"fuel_name":"LPG","price":57.4}]},
{"id":"103","name":"BP Connect Kellyville","short_name":"BP","longitude":"150.95894","latitude":"-33.712801","fuel_provided":[{"fuel_name":"Unleaded","price":97.9},{"fuel_name":"LPG","price":57.6}]},
{"id":"104","name":"BP Dural","short_name":"BP","longitude":"151.028376","latitude":"-33.695777","fuel_provided":[{"fuel_name":"Unleaded","price":100.6},{"fuel_name":"LPG","price":53.0}]},
{"id":"105","name":"BP Express Merrylands","short_name":"BP","longitude":"150.9684","latitude":"-33.836862","fuel_provided":[{"fuel_name":"Unleaded","price":101.1},{"fuel_name":"LPG","price":54.8}]},
{"id":"106","name":"BP Smithfield","short_name":"BP","longitude":"150.925721","latitude":"-33.851497","fuel_provided":[{"fuel_name":"Unleaded","price":97.2},{"fuel_name":"LPG","price":57.8}]},
{"id":"107","name":"BP Horsley Park","short_name":"BP","longitude":"150.863201","latitude":"-33.843734","fuel_provided":[{"fuel_name":"Unleaded","price":102.1},{"fuel_name":"LPG","price":52.0}]},
{"id":"108","name":"BP Fairfield","short_name":"BP","longitude":"150.945199","latitude":"-33.872729","fuel_provided":[{"fuel_name":"Unleaded","price":100.2},{"fuel_name":"LPG","price":56.9}]},
{"id":"109","name":"BP Carrington","short_name":"BP","longitude":"150.966144","latitude":"-33.877867","fuel_provided":[{"fuel_name":"Unleaded","price":101.2},{"fuel_name":"LPG","price":55.0}]},
{"id":"110","name":"BP Cabramatta (Formerly BP Railway)","short_name":"BP","longitude":"150.936449","latitude":"-33.896087","fuel_provided":[{"fuel_name":"Unleaded","price":100.3},{"fuel_name":"LPG","price":53.5}]},
{"id":"111","name":"BP Lansvale","short_name":"BP","longitude":"150.958763","latitude":"-33.893785","fuel_provided":[{"fuel_name":"Unleaded","price":100.0},{"fuel_name":"LPG","price":55.3}]},
{"id":"112","name":"BP West Cabramatta","short_name":"BP","longitude":"150.92031","latitude":"-33.898425","fuel_provided":[{"fuel_name":"Unleaded","price":101.4},{"fuel_name":"LPG","price":52.6}]},
{"id":"113","name":"BP Liverpool","short_name":"BP","longitude":"150.909371","latitude":"-33.927571","fuel_provided":[{"fuel_name":"Unleaded","price":99.2},{"fuel_name":"LPG","price":56.2}]},
{"id":"114","name":"BP Express Casula","short_name":"BP","longitude":"150.911911","latitude":"-33.940937","fuel_provided":[{"fuel_name":"Unleaded","price":102.7},{"fuel_name":"LPG","price":54.3}]},
{"id":"115","name":"BP Express Warwick Farm","short_name":"BP","longitude":"150.930795","latitude":"-33.914306","fuel_provided":[{"fuel_name":"Unleaded","price":99.8},{"fuel_name":"LPG","price":56.2}]},
{"id":"116","name":"BP South Moorebank","short_name":"BP","longitude":"150.935792","latitude":"-33.935986","fuel_provided":[{"fuel_name":"Unleaded","price":99.4},{"fuel_name":"LPG","price":53.3}]},
{"id":"117","name":"BP Crossroads","short_name":"BP","longitude":"150.894867","latitude":"-33.955222","fuel_provided":[{"fuel_name":"Unleaded","price":101.8},{"fuel_name":"LPG","price":56.1}]},
{"id":"118","name":"BP Rossmore","short_name":"BP","longitude":"150.77022","latitude":"-33.94546","fuel_provided":[{"fuel_name":"Unleaded","price":101.6},{"fuel_name":"LPG","price":56.2}]},
{"id":"119","name":"BP Hoxton Park","short_name":"BP","longitude":"150.848186","latitude":"-33.923883","fuel_provided":[{"fuel_name":"Unleaded","price":97.2},{"fuel_name":"LPG","price":54.7}]},
{"id":"120","name":"BP Greenfield Park","short_name":"BP","longitude":"150.88954","latitude":"-33.87192","fuel_provided":[{"fuel_name":"Unleaded","price":99.6},{"fuel_name":"LPG","price":53.0}]},
{"id":"121","name":"BP Bonnyrigg","short_name":"BP","longitude":"150.85765","latitude":"-33.89414","fuel_provided":[{"fuel_name":"Unleaded","price":101.4},{"fuel_name":"LPG","price":54.4}]},
{"id":"122","name":"BP Kemps Creek","short_name":"BP","longitude":"150.79178","latitude":"-33.88004","fuel_provided":[{"fuel_name":"Unleaded","price":101.3},{"fuel_name":"LPG","price":57.6}]},
{"id":"123","name":"BP Leppington","short_name":"BP","longitude":"150.812969","latitude":"-33.970587","fuel_provided":[{"fuel_name":"Unleaded","price":100.5},{"fuel_name":"LPG","price":53.8}]},
{"id":"124","name":"BP 2Go Canterbury","short_name":"BP","longitude":"151.11299","latitude":"-33.914881","fuel_provided":[{"fuel_name":"Unleaded","price":101.8},{"fuel_name":"LPG","price":55.0}]},
{"id":"125","name":"BP Campsie","short_name":"BP","longitude":"151.106813","latitude":"-33.922352","fuel_provided":[{"fuel_name":"Unleaded","price":102.9},{"fuel_name":"LPG","price":56.8}]},
{"id":"126","name":"BP Connect Wiley Park","short_name":"BP","longitude":"151.066711","latitude":"-33.919425","fuel_provided":[{"fuel_name":"Unleaded","price":99.0},{"fuel_name":"LPG","price":52.9}]},
{"id":"127","name":"BP Belfield","short_name":"BP","longitude":"151.082456","latitude":"-33.90261","fuel_provided":[{"fuel_name":"Unleaded","price":102.1},{"fuel_name":"LPG","price":53.3}]},
{"id":"128","name":"BP Potts Hill Truckstop","short_name":"BP","longitude":"151.038749","latitude":"-33.893404","fuel_provided":[{"fuel_name":"Unleaded","price":97.9},{"fuel_name":"LPG","price":55.2}]},
{"id":"129","name":"BP Yagoona","short_name":"BP","longitude":"151.029152","latitude":"-33.908944","fuel_provided":[{"fuel_name":"Unleaded","price":102.5},{"fuel_name":"LPG","price":56.3}]},
{"id":"130","name":"BP West Yagoona","short_name":"BP","longitude":"151.011439","latitude":"-33.90483","fuel_provided":[{"fuel_name":"Unleaded","price":100.6},{"fuel_name":"LPG","price":56.4}]},
{"id":"131","name":"BP Express Condell Park","short_name":"BP","longitude":"151.012719","latitude":"-33.922492","fuel_provided":[{"fuel_name":"Unleaded","price":100.4},{"fuel_name":"LPG","price":57.8}]},
{"id":"132","name":"BP Bankstown","short_name":"BP","longitude":"151.029928","latitude":"-33.927894","fuel_provided":[{"fuel_name":"Unleaded","price":102.9},{"fuel_name":"LPG","price":57.1}]},
{"id":"133","name":"BP 2Go Bankstown Airport","short_name":"BP","longitude":"150.98035","latitude":"-33.927402","fuel_provided":[{"fuel_name":"Unleaded","price":101.0},{"fuel_name":"LPG","price":54.4}]},
{"id":"134","name":"BP Villawood","short_name":"BP","longitude":"150.976677","latitude":"-33.883149","fuel_provided":[{"fuel_name":"Unleaded","price":97.5},{"fuel_name":"LPG","price":53.4}]},
{"id":"135","name":"BP Express Bexley","short_name":"BP","longitude":"151.118174","latitude":"-33.957433","fuel_provided":[{"fuel_name":"Unleaded","price":102.2},{"fuel_name":"LPG","price":53.3}]},
{"id":"136","name":"BP Moorefields Road","short_name":"BP","longitude":"151.086313","latitude":"-33.93545","fuel_provided":[{"fuel_name":"Unleaded","price":99.1},{"fuel_name":"LPG","price":53.2}]},
{"id":"137","name":"BP 2GO Riverwood","short_name":"BP","longitude":"151.051068","latitude":"-33.955702","fuel_provided":[{"fuel_name":"Unleaded","price":100.0},{"fuel_name":"LPG","price":56.4}]},
{"id":"138","name":"BP Lugarno","short_name":"BP","longitude":"151.04699","latitude":"-33.977444","fuel_provided":[{"fuel_name":"Unleaded","price":99.0},{"fuel_name":"LPG","price":55.1}]},
{"id":"139","name":"BP Davies Road","short_name":"BP","longitude":"151.03706","latitude":"-33.94725","fuel_provided":[{"fuel_name":"Unleaded","price":101.6},{"fuel_name":"LPG","price":53.8}]},
{"id":"140","name":"BP Connect Revesby","short_name":"BP","longitude":"151.017775","latitude":"-33.938604","fuel_provided":[{"fuel_name":"Unleaded","price":98.2},{"fuel_name":"LPG","price":54.7}]},
{"id":"141","name":"BP Mars","short_name":"BP","longitude":"151.016656","latitude":"-33.955675","fuel_provided":[{"fuel_name":"Unleaded","price":98.9},{"fuel_name":"LPG","price":53.8}]},
{"id":"142","name":"BP Milperra","short_name":"BP","longitude":"150.989059","latitude":"-33.937602","fuel_provided":[{"fuel_name":"Unleaded","price":98.0},{"fuel_name":"LPG","price":54.0}]},
{"id":"143","name":"BP Sans Souci","short_name":"BP","longitude":"151.132278","latitude":"-33.992439","fuel_provided":[{"fuel_name":"Unleaded","price":101.7},{"fuel_name":"LPG","price":54.5}]},
{"id":"144","name":"BP Carrs Park","short_name":"BP","longitude":"151.11781","latitude":"-33.982002","fuel_provided":[{"fuel_name":"Unleaded","price":98.8},{"fuel_name":"LPG","price":52.5}]},
{"id":"145","name":"BP Penshurst","short_name":"BP","longitude":"151.09003","latitude":"-33.96343","fuel_provided":[{"fuel_name":"Unleaded","price":102.2},{"fuel_name":"LPG","price":56.7}]},
{"id":"146","name":"BP Connect Mortdale","short_name":"BP","longitude":"151.073689","latitude":"-33.970669","fuel_provided":[{"fuel_name":"Unleaded","price":100.2},{"fuel_name":"LPG","price":56.3}]},
{"id":"147","name":"BP Express Gymea","short_name":"BP","longitude":"151.085154","latitude":"-34.032801","fuel_provided":[{"fuel_name":"Unleaded","price":100.8},{"fuel_name":"LPG","price":52.1}]},
{"id":"148","name":"BP Connect Caringbah","short_name":"BP","longitude":"151.125057","latitude":"-34.032883","fuel_provided":[{"fuel_name":"Unleaded","price":100.3},{"fuel_name":"LPG","price":56.9}]},
{"id":"149","name":"BP Connect Cronulla","short_name":"BP","longitude":"151.150759","latitude":"-34.050956","fuel_provided":[{"fuel_name":"Unleaded","price":98.2},{"fuel_name":"LPG","price":56.1}]},
{"id":"150","name":"BP Singleton","short_name":"BP","longitude":"151.174952","latitude":"-32.561908","fuel_provided":[{"fuel_name":"Unleaded","price":98.6},{"fuel_name":"LPG","price":56.6}]},
{"id":"151","name":"BP Kirrawee","short_name":"BP","longitude":"151.071072","latitude":"-34.032297","fuel_provided":[{"fuel_name":"Unleaded","price":98.5},{"fuel_name":"LPG","price":54.7}]},
{"id":"152","name":"BP Loftus","short_name":"BP","longitude":"151.050752","latitude":"-34.045686","fuel_provided":[{"fuel_name":"Unleaded","price":98.1},{"fuel_name":"LPG","price":54.3}]},
{"id":"153","name":"BP Engadine","short_name":"BP","longitude":"151.01669","latitude":"-34.06439","fuel_provided":[{"fuel_name":"Unleaded","price":100.3},{"fuel_name":"LPG","price":57.6}]},
{"id":"154","name":"BP Express Engadine","short_name":"BP","longitude":"151.011248","latitude":"-34.077496","fuel_provided":[{"fuel_name":"Unleaded","price":99.6},{"fuel_name":"LPG","price":57.9}]},
{"id":"155","name":"BP Express Wyoming","short_name":"BP","longitude":"151.351119","latitude":"-33.408004","fuel_provided":[{"fuel_name":"Unleaded","price":101.9},{"fuel_name":"LPG","price":54.7}]},
{"id":"156","name":"BP Woy Woy","short_name":"BP","longitude":"151.32033","latitude":"-33.493817","fuel_provided":[{"fuel_name":"Unleaded","price":97.6},{"fuel_name":"LPG","price":53.1}]},
{"id":"157","name":"BP Empire Bay (DSS)","short_name":"BP","longitude":"151.36815","latitude":"-33.507131","fuel_provided":[{"fuel_name":"Unleaded","price":100.0},{"fuel_name":"LPG","price":57.9}]},
{"id":"158","name":"BP Express Tuggerah","short_name":"BP","longitude":"151.41984","latitude":"-33.305775","fuel_provided":[{"fuel_name":"Unleaded","price":97.1},{"fuel_name":"LPG","price":57.0}]},
{"id":"159","name":"BP North Wyong","short_name":"BP","longitude":"151.435375","latitude":"-33.267878","fuel_provided":[{"fuel_name":"Unleaded","price":102.3},{"fuel_name":"LPG","price":53.8}]},
{"id":"160","name":"BP Lake Munmorah","short_name":"BP","longitude":"151.567825","latitude":"-33.19026","fuel_provided":[{"fuel_name":"Unleaded","price":100.2},{"fuel_name":"LPG","price":57.6}]},
{"id":"161","name":"BP Tumbi Umbi","short_name":"BP","longitude":"151.44428","latitude":"-33.36272","fuel_provided":[{"fuel_name":"Unleaded","price":102.3},{"fuel_name":"LPG","price":57.5}]},
{"id":"162","name":"BP Charmhaven","short_name":"BP","longitude":"151.502719","latitude":"-33.227252","fuel_provided":[{"fuel_name":"Unleaded","price":99.6},{"fuel_name":"LPG","price":53.9}]},
{"id":"163","name":"DSS Morisset","short_name":"BP","longitude":"151.497987","latitude":"-33.107994","fuel_provided":[{"fuel_name":"Unleaded","price":100.8},{"fuel_name":"LPG","price":52.5}]},
{"id":"164","name":"BP Cooranbong","short_name":"BP","longitude":"151.450106","latitude":"-33.088301","fuel_provided":[{"fuel_name":"Unleaded","price":99.8},{"fuel_name":"LPG","price":52.4}]},
{"id":"165","name":"BP Express Valentine","short_name":"BP","longitude":"151.642646","latitude":"-33.007926","fuel_provided":[{"fuel_name":"Unleaded","price":101.8},{"fuel_name":"LPG","price":57.4}]},
{"id":"166","name":"BP Warners Bay","short_name":"BP","longitude":"151.645333","latitude":"-32.975598","fuel_provided":[{"fuel_name":"Unleaded","price":97.9},{"fuel_name":"LPG","price":54.2}]},
{"id":"167","name":"BP Express Toronto","short_name":"BP","longitude":"151.593786","latitude":"-33.011453","fuel_provided":[{"fuel_name":"Unleaded","price":102.7},{"fuel_name":"LPG","price":53.3}]},
{"id":"168","name":"BP Cardiff","short_name":"BP","longitude":"151.657033","latitude":"-32.937914","fuel_provided":[{"fuel_name":"Unleaded","price":99.2},{"fuel_name":"LPG","price":53.8}]},
{"id":"169","name":"BP Cardiff Pennant St","short_name":"BP","longitude":"151.64382","latitude":"-32.94094","fuel_provided":[{"fuel_name":"Unleaded","price":100.9},{"fuel_name":"LPG","price":57.7}]},
{"id":"170","name":"BP Wallsend","short_name":"BP","longitude":"151.68234","latitude":"-32.903941","fuel_provided":[{"fuel_name":"Unleaded","price":102.1},{"fuel_name":"LPG","price":55.0}]},
{"id":"171","name":"BP Gateshead","short_name":"BP","longitude":"151.68368","latitude":"-32.978186","fuel_provided":[{"fuel_name":"Unleaded","price":97.9},{"fuel_name":"LPG","price":54.8}]},
{"id":"172","name":"BP Charlestown","short_name":"BP","longitude":"151.689905","latitude":"-32.95813","fuel_provided":[{"fuel_name":"Unleaded","price":100.5},{"fuel_name":"LPG","price":54.8}]},
{"id":"173","name":"BP Whitebridge","short_name":"BP","longitude":"151.711771","latitude":"-32.981511","fuel_provided":[{"fuel_name":"Unleaded","price":97.7},{"fuel_name":"LPG","price":52.1}]},
{"id":"174","name":"Tighes Hill DCA","short_name":"BP","longitude":"151.75969","latitude":"-32.904997","fuel_provided":[{"fuel_name":"Unleaded","price":101.6},{"fuel_name":"LPG","price":56.5}]},
{"id":"175","name":"BP Newcastle West","short_name":"BP","longitude":"151.7559","latitude":"-32.92557","fuel_provided":[{"fuel_name":"Unleaded","price":97.7},{"fuel_name":"LPG","price":57.2}]},
{"id":"176","name":"BP Hamilton South","short_name":"BP","longitude":"151.753319","latitude":"-32.932151","fuel_provided":[{"fuel_name":"Unleaded","price":99.2},{"fuel_name":"LPG","price":54.5}]},
{"id":"177","name":"BP Mayfield","short_name":"BP","longitude":"151.744317","latitude":"-32.902817","fuel_provided":[{"fuel_name":"Unleaded","price":97.3},{"fuel_name":"LPG","price":56.5}]},
{"id":"178","name":"BP Steel River","short_name":"BP","longitude":"151.726773","latitude":"-32.885166","fuel_provided":[{"fuel_name":"Unleaded","price":101.0},{"fuel_name":"LPG","price":56.7}]},
{"id":"179","name":"BP Mayfield Central","short_name":"BP","longitude":"151.73561","latitude":"-32.89686","fuel_provided":[{"fuel_name":"Unleaded","price":102.8},{"fuel_name":"LPG","price":57.3}]},
{"id":"180","name":"BP New Lambton","short_name":"BP","longitude":"151.715594","latitude":"-32.928922","fuel_provided":[{"fuel_name":"Unleaded","price":97.3},{"fuel_name":"LPG","price":55.3}]},
{"id":"181","name":"BP Anna Bay","short_name":"BP","longitude":"152.08407","latitude":"-32.77769","fuel_provided":[{"fuel_name":"Unleaded","price":97.0},{"fuel_name":"LPG","price":55.3}]},
{"id":"182","name":"BP Salamander Bay","short_name":"BP","longitude":"152.106874","latitude":"-32.737689","fuel_provided":[{"fuel_name":"Unleaded","price":97.8},{"fuel_name":"LPG","price":55.4}]},
{"id":"183","name":"Medowie Tyre & Auto","short_name":"BP","longitude":"151.868825","latitude":"-32.74765","fuel_provided":[{"fuel_name":"Unleaded","price":102.4},{"fuel_name":"LPG","price":57.6}]},
{"id":"184","name":"BP Salt Ash","short_name":"BP","longitude":"151.902192","latitude":"-32.788427","fuel_provided":[{"fuel_name":"Unleaded","price":99.8},{"fuel_name":"LPG","price":52.3}]},
{"id":"185","name":"BP Rutherford","short_name":"BP","longitude":"151.516764","latitude":"-32.710092","fuel_provided":[{"fuel_name":"Unleaded","price":102.8},{"fuel_name":"LPG","price":58.0}]},
{"id":"186","name":"BP Thornton","short_name":"BP","longitude":"151.63513","latitude":"-32.78996","fuel_provided":[{"fuel_name":"Unleaded","price":102.1},{"fuel_name":"LPG","price":57.2}]},
{"id":"187","name":"BP Beresfield Truckstop","short_name":"BP","longitude":"151.63935","latitude":"-32.81168","fuel_provided":[{"fuel_name":"Unleaded","price":98.8},{"fuel_name":"LPG","price":53.1}]},
{"id":"188","name":"BP Hexham","short_name":"BP","longitude":"151.684638","latitude":"-32.827574","fuel_provided":[{"fuel_name":"Unleaded","price":98.0},{"fuel_name":"LPG","price":53.8}]},
{"id":"189","name":"BP Brunkerville","short_name":"BP","longitude":"151.479299","latitude":"-32.964567","fuel_provided":[{"fuel_name":"Unleaded","price":99.3},{"fuel_name":"LPG","price":54.5}]},
{"id":"190","name":"BP Connect Heatherbrae","short_name":"BP","longitude":"151.7372","latitude":"-32.78312","fuel_provided":[{"fuel_name":"Unleaded","price":99.3},{"fuel_name":"LPG","price":54.1}]},
{"id":"191","name":"DSS BP Karuah","short_name":"BP","longitude":"151.962993","latitude":"-32.653983","fuel_provided":[{"fuel_name":"Unleaded","price":100.6},{"fuel_name":"LPG","price":53.6}]},
{"id":"192","name":"BP Tea Gardens","short_name":"BP","longitude":"152.14915","latitude":"-32.65104","fuel_provided":[{"fuel_name":"Unleaded","price":97.9},{"fuel_name":"LPG","price":57.7}]},
{"id":"193","name":"BP Aberdare","short_name":"BP","longitude":"151.374371","latitude":"-32.843737","fuel_provided":[{"fuel_name":"Unleaded","price":101.6},{"fuel_name":"LPG","price":56.5}]},
{"id":"194","name":"Weston Filling Station","short_name":"BP","longitude":"151.45609","latitude":"-32.81427","fuel_provided":[{"fuel_name":"Unleaded","price":102.7},{"fuel_name":"LPG","price":57.8}]},
{"id":"195","name":"Stanford Merthyr Auto","short_name":"BP","longitude":"151.49134","latitude":"-32.82787","fuel_provided":[{"fuel_name":"Unleaded","price":100.1},{"fuel_name":"LPG","price":57.2}]},
{"id":"196","name":"BP Mount Thorely","short_name":"BP","longitude":"151.10283","latitude":"-32.62443","fuel_provided":[{"fuel_name":"Unleaded","price":102.7},{"fuel_name":"LPG","price":53.5}]},
{"id":"197","name":"Singleton Depot & DCA","short_name":"BP","longitude":"151.10283","latitude":"-32.62443","fuel_provided":[{"fuel_name":"Unleaded","price":98.7},{"fuel_name":"LPG","price":57.2}]},
{"id":"198","name":"BP Jerrys Plains","short_name":"BP","longitude":"150.9088","latitude":"-32.49588","fuel_provided":[{"fuel_name":"Unleaded","price":101.5},{"fuel_name":"LPG","price":57.5}]},
{"id":"199","name":"BP Muswellbrook East","short_name":"BP","longitude":"150.901119","latitude":"-32.281769","fuel_provided":[{"fuel_name":"Unleaded","price":100.2},{"fuel_name":"LPG","price":55.7}]},
{"id":"200","name":"BP Scone","short_name":"BP","longitude":"150.865222","latitude":"-32.040313","fuel_provided":[{"fuel_name":"Unleaded","price":102.3},{"fuel_name":"LPG","price":57.6}]},
{"id":"201","name":"DSS Highway Service (SCONE NSW)","short_name":"BP","longitude":"150.866248","latitude":"-32.044032","fuel_provided":[{"fuel_name":"Unleaded","price":99.6},{"fuel_name":"LPG","price":55.6}]},
{"id":"202","name":"Tamworth Depot","short_name":"BP","longitude":"150.905795","latitude":"-31.096684","fuel_provided":[{"fuel_name":"Unleaded","price":100.8},{"fuel_name":"LPG","price":52.4}]},
{"id":"203","name":"DSF Tamwoth","short_name":"BP","longitude":"150.905795","latitude":"-31.096684","fuel_provided":[{"fuel_name":"Unleaded","price":100.4},{"fuel_name":"LPG","price":53.1}]},
{"id":"204","name":"Tamworth Stop & Go","short_name":"BP","longitude":"150.92344","latitude":"-31.1261","fuel_provided":[{"fuel_name":"Unleaded","price":101.6},{"fuel_name":"LPG","price":57.1}]},
{"id":"205","name":"BP Tamworth Bridge St RDD","short_name":"BP","longitude":"150.924719","latitude":"-31.091152","fuel_provided":[{"fuel_name":"Unleaded","price":98.1},{"fuel_name":"LPG","price":52.0}]},
{"id":"206","name":"BP Viaduct","short_name":"BP","longitude":"150.925101","latitude":"-31.085199","fuel_provided":[{"fuel_name":"Unleaded","price":101.6},{"fuel_name":"LPG","price":55.9}]},
{"id":"207","name":"BP Manilla","short_name":"BP","longitude":"150.729824","latitude":"-30.757139","fuel_provided":[{"fuel_name":"Unleaded","price":101.1},{"fuel_name":"LPG","price":53.7}]},
{"id":"208","name":"BP Barraba","short_name":"BP","longitude":"150.609841","latitude":"-30.38106","fuel_provided":[{"fuel_name":"Unleaded","price":97.4},{"fuel_name":"LPG","price":52.0}]},
{"id":"209","name":"BP Armidale RDD","short_name":"BP","longitude":"151.66934","latitude":"-30.5122","fuel_provided":[{"fuel_name":"Unleaded","price":98.1},{"fuel_name":"LPG","price":55.7}]},
{"id":"210","name":"Mountain Motors","short_name":"BP","longitude":"151.593733","latitude":"-30.984558","fuel_provided":[{"fuel_name":"Unleaded","price":99.9},{"fuel_name":"LPG","price":55.1}]},
{"id":"211","name":"BP Ashford Road & DCA","short_name":"BP","longitude":"151.121869","latitude":"-29.765666","fuel_provided":[{"fuel_name":"Unleaded","price":101.5},{"fuel_name":"LPG","price":52.6}]},
{"id":"212","name":"BP Inverell DCA Shop Front","short_name":"BP","longitude":"151.121869","latitude":"-29.765666","fuel_provided":[{"fuel_name":"Unleaded","price":101.5},{"fuel_name":"LPG","price":52.6}]},
{"id":"213","name":"BP Black Mountain","short_name":"BP","longitude":"151.689925","latitude":"-30.314824","fuel_provided":[{"fuel_name":"Unleaded","price":99.2},{"fuel_name":"LPG","price":53.6}]},
{"id":"214","name":"BP Seven Knights","short_name":"BP","longitude":"152.0173","latitude":"-29.06253","fuel_provided":[{"fuel_name":"Unleaded","price":100.4},{"fuel_name":"LPG","price":52.8}]},
{"id":"215","name":"BP Tenterfield","short_name":"BP","longitude":"152.021084","latitude":"-29.053516","fuel_provided":[{"fuel_name":"Unleaded","price":98.2},{"fuel_name":"LPG","price":55.5}]},
{"id":"216","name":"Gunnedah Depot","short_name":"BP","longitude":"150.23305","latitude":"-30.96668","fuel_provided":[{"fuel_name":"Unleaded","price":99.9},{"fuel_name":"LPG","price":53.3}]},
{"id":"217","name":"BP Gunnedah RDD","short_name":"BP","longitude":"150.25496","latitude":"-30.9807166","fuel_provided":[{"fuel_name":"Unleaded","price":99.1},{"fuel_name":"LPG","price":55.5}]},
{"id":"218","name":"BP Depot Oudenryn","short_name":"BP","longitude":"149.43265","latitude":"-30.22465","fuel_provided":[{"fuel_name":"Unleaded","price":100.2},{"fuel_name":"LPG","price":53.7}]},
{"id":"219","name":"BP Narrabri","short_name":"BP","longitude":"149.769876","latitude":"-30.334905","fuel_provided":[{"fuel_name":"Unleaded","price":97.7},{"fuel_name":"LPG","price":55.0}]},
{"id":"220","name":"BP Bellata RDD","short_name":"BP","longitude":"149.790944","latitude":"-29.91723","fuel_provided":[{"fuel_name":"Unleaded","price":99.6},{"fuel_name":"LPG","price":53.6}]},
{"id":"221","name":"BP Moree Greebah Rd RDD","short_name":"BP","longitude":"149.822797","latitude":"-29.462063","fuel_provided":[{"fuel_name":"Unleaded","price":99.9},{"fuel_name":"LPG","price":56.0}]},
{"id":"222","name":"BP Moree Truckstop","short_name":"BP","longitude":"149.84627","latitude":"-29.48169","fuel_provided":[{"fuel_name":"Unleaded","price":97.7},{"fuel_name":"LPG","price":53.8}]},
{"id":"223","name":"Roger Moore Fuel Service","short_name":"BP","longitude":"150.576642","latitude":"-29.541191","fuel_provided":[{"fuel_name":"Unleaded","price":99.1},{"fuel_name":"LPG","price":54.0}]},
{"id":"224","name":"Bingara Corner Store","short_name":"BP","longitude":"150.569094","latitude":"-29.867452","fuel_provided":[{"fuel_name":"Unleaded","price":100.4},{"fuel_name":"LPG","price":56.6}]},
{"id":"225","name":"Turner Holden","short_name":"BP","longitude":"151.75778","latitude":"-32.400405","fuel_provided":[{"fuel_name":"Unleaded","price":100.1},{"fuel_name":"LPG","price":57.1}]},
{"id":"226","name":"BP Coolongolook","short_name":"BP","longitude":"152.32208","latitude":"-32.21906","fuel_provided":[{"fuel_name":"Unleaded","price":102.9},{"fuel_name":"LPG","price":54.5}]},
{"id":"227","name":"BP Taree West","short_name":"BP","longitude":"152.449934","latitude":"-31.907169","fuel_provided":[{"fuel_name":"Unleaded","price":99.9},{"fuel_name":"LPG","price":57.3}]},
{"id":"228","name":"Kempsey Service Station","short_name":"BP","longitude":"152.83702","latitude":"-31.09158","fuel_provided":[{"fuel_name":"Unleaded","price":98.8},{"fuel_name":"LPG","price":52.4}]},
{"id":"229","name":"BP Clybucca Truckstop","short_name":"BP","longitude":"152.942578","latitude":"-30.938466","fuel_provided":[{"fuel_name":"Unleaded","price":97.5},{"fuel_name":"LPG","price":54.0}]},
{"id":"230","name":"BP Port Plaza","short_name":"BP","longitude":"152.9146","latitude":"-31.4768","fuel_provided":[{"fuel_name":"Unleaded","price":100.0},{"fuel_name":"LPG","price":53.8}]},
{"id":"231","name":"BP Gateway Port Macquarie","short_name":"BP","longitude":"152.821508","latitude":"-31.46336","fuel_provided":[{"fuel_name":"Unleaded","price":98.1},{"fuel_name":"LPG","price":56.8}]},
{"id":"232","name":"BP Wauchope","short_name":"BP","longitude":"152.719365","latitude":"-31.466593","fuel_provided":[{"fuel_name":"Unleaded","price":99.1},{"fuel_name":"LPG","price":53.3}]},
{"id":"233","name":"Macksville Depot","short_name":"BP","longitude":"152.92129","latitude":"-30.70846","fuel_provided":[{"fuel_name":"Unleaded","price":102.0},{"fuel_name":"LPG","price":57.5}]},
{"id":"234","name":"Coramba Service Station and Hardware","short_name":"BP","longitude":"153.01418","latitude":"-30.22175","fuel_provided":[{"fuel_name":"Unleaded","price":102.7},{"fuel_name":"LPG","price":56.2}]},
{"id":"235","name":"BP Boambee","short_name":"BP","longitude":"153.080745","latitude":"-30.335113","fuel_provided":[{"fuel_name":"Unleaded","price":99.5},{"fuel_name":"LPG","price":53.9}]},
{"id":"236","name":"BP South Coffs Harbour","short_name":"BP","longitude":"153.08939","latitude":"-30.31843","fuel_provided":[{"fuel_name":"Unleaded","price":102.9},{"fuel_name":"LPG","price":53.2}]},
{"id":"237","name":"BP Coffs Harbour","short_name":"BP","longitude":"153.1183","latitude":"-30.291612","fuel_provided":[{"fuel_name":"Unleaded","price":98.5},{"fuel_name":"LPG","price":55.4}]},
{"id":"238","name":"Park Beach Mini Mart","short_name":"BP","longitude":"153.1380076","latitude":"-30.290559","fuel_provided":[{"fuel_name":"Unleaded","price":102.5},{"fuel_name":"LPG","price":53.2}]},
{"id":"239","name":"Fosters Service Station","short_name":"BP","longitude":"152.89586","latitude":"-30.451916","fuel_provided":[{"fuel_name":"Unleaded","price":101.9},{"fuel_name":"LPG","price":55.1}]},
{"id":"240","name":"BP North Urunga","short_name":"BP","longitude":"153.00883","latitude":"-30.486213","fuel_provided":[{"fuel_name":"Unleaded","price":98.8},{"fuel_name":"LPG","price":56.8}]},
{"id":"241","name":"BP Coutts Crossing Store","short_name":"BP","longitude":"152.89143","latitude":"-29.82818","fuel_provided":[{"fuel_name":"Unleaded","price":97.1},{"fuel_name":"LPG","price":54.2}]},
{"id":"242","name":"DSS Marina (NSW)","short_name":"BP","longitude":"152.93503","latitude":"-29.701925","fuel_provided":[{"fuel_name":"Unleaded","price":102.8},{"fuel_name":"LPG","price":53.3}]},
{"id":"243","name":"BP Tornik","short_name":"BP","longitude":"152.95736","latitude":"-29.70369","fuel_provided":[{"fuel_name":"Unleaded","price":97.1},{"fuel_name":"LPG","price":55.0}]},
{"id":"244","name":"BP Grafton","short_name":"BP","longitude":"152.937187","latitude":"-29.693472","fuel_provided":[{"fuel_name":"Unleaded","price":100.4},{"fuel_name":"LPG","price":53.1}]},
{"id":"245","name":"Mann River Caravan Park","short_name":"BP","longitude":"152.55067","latitude":"-29.57696","fuel_provided":[{"fuel_name":"Unleaded","price":102.7},{"fuel_name":"LPG","price":56.9}]},
{"id":"246","name":"BP Tucabia","short_name":"BP","longitude":"153.108233","latitude":"-29.66763","fuel_provided":[{"fuel_name":"Unleaded","price":97.8},{"fuel_name":"LPG","price":53.6}]},
{"id":"247","name":"Minnie Water Store","short_name":"BP","longitude":"153.294813","latitude":"-29.768997","fuel_provided":[{"fuel_name":"Unleaded","price":101.0},{"fuel_name":"LPG","price":55.4}]},
{"id":"248","name":"BP Maclean","short_name":"BP","longitude":"153.200536","latitude":"-29.485033","fuel_provided":[{"fuel_name":"Unleaded","price":102.1},{"fuel_name":"LPG","price":53.3}]},
{"id":"249","name":"BP Riverside","short_name":"BP","longitude":"153.201158","latitude":"-29.449322","fuel_provided":[{"fuel_name":"Unleaded","price":97.2},{"fuel_name":"LPG","price":55.9}]},
{"id":"250","name":"BP Yamba","short_name":"BP","longitude":"153.34409","latitude":"-29.435086","fuel_provided":[{"fuel_name":"Unleaded","price":101.6},{"fuel_name":"LPG","price":53.8}]},
{"id":"251","name":"BP Coraki","short_name":"BP","longitude":"153.2839","latitude":"-28.98306","fuel_provided":[{"fuel_name":"Unleaded","price":102.4},{"fuel_name":"LPG","price":56.3}]},
{"id":"252","name":"BP Broadwater","short_name":"BP","longitude":"153.435659","latitude":"-29.010036","fuel_provided":[{"fuel_name":"Unleaded","price":97.8},{"fuel_name":"LPG","price":54.7}]},
{"id":"253","name":"Brown & Hurley","short_name":"BP","longitude":"153.0029632","latitude":"-28.6342194","fuel_provided":[{"fuel_name":"Unleaded","price":102.8},{"fuel_name":"LPG","price":56.3}]},
{"id":"254","name":"BP Kyogle","short_name":"BP","longitude":"153.00343","latitude":"-28.61831","fuel_provided":[{"fuel_name":"Unleaded","price":98.3},{"fuel_name":"LPG","price":55.8}]},
{"id":"255","name":"BP Wardell","short_name":"BP","longitude":"153.465777","latitude":"-28.95038","fuel_provided":[{"fuel_name":"Unleaded","price":101.2},{"fuel_name":"LPG","price":52.5}]},
{"id":"256","name":"Wollongbar Service Station","short_name":"BP","longitude":"153.415167","latitude":"-28.825815","fuel_provided":[{"fuel_name":"Unleaded","price":98.2},{"fuel_name":"LPG","price":54.7}]},
{"id":"257","name":"BP General Store","short_name":"BP","longitude":"153.403237","latitude":"-28.815391","fuel_provided":[{"fuel_name":"Unleaded","price":99.8},{"fuel_name":"LPG","price":55.1}]},
{"id":"258","name":"BP Big Pineapple","short_name":"BP","longitude":"153.53577","latitude":"-28.86391","fuel_provided":[{"fuel_name":"Unleaded","price":99.6},{"fuel_name":"LPG","price":53.7}]},
{"id":"259","name":"BP North Ballina","short_name":"BP","longitude":"153.556278","latitude":"-28.852661","fuel_provided":[{"fuel_name":"Unleaded","price":102.3},{"fuel_name":"LPG","price":54.9}]},
{"id":"260","name":"BP City Entrance Lismore","short_name":"BP","longitude":"153.28441","latitude":"-28.804589","fuel_provided":[{"fuel_name":"Unleaded","price":98.6},{"fuel_name":"LPG","price":56.6}]},
{"id":"261","name":"Penoil Service Station","short_name":"BP","longitude":"153.27838","latitude":"-28.812883","fuel_provided":[{"fuel_name":"Unleaded","price":98.8},{"fuel_name":"LPG","price":53.7}]},
{"id":"262","name":"BP Goonellabah","short_name":"BP","longitude":"153.33883","latitude":"-28.81336","fuel_provided":[{"fuel_name":"Unleaded","price":101.2},{"fuel_name":"LPG","price":55.1}]},
{"id":"263","name":"BP Ozigo","short_name":"BP","longitude":"153.581432","latitude":"-28.637144","fuel_provided":[{"fuel_name":"Unleaded","price":98.9},{"fuel_name":"LPG","price":55.5}]},
{"id":"264","name":"Suffolk Park Service","short_name":"BP","longitude":"153.60816","latitude":"-28.68798","fuel_provided":[{"fuel_name":"Unleaded","price":100.9},{"fuel_name":"LPG","price":55.6}]},
{"id":"265","name":"BP Brunswick Heads","short_name":"BP","longitude":"153.547371","latitude":"-28.541889","fuel_provided":[{"fuel_name":"Unleaded","price":97.4},{"fuel_name":"LPG","price":56.7}]},
{"id":"266","name":"BP Murwillumbah","short_name":"BP","longitude":"153.408369","latitude":"-28.32723","fuel_provided":[{"fuel_name":"Unleaded","price":98.9},{"fuel_name":"LPG","price":52.3}]},
{"id":"267","name":"BP Connect Kennedy Drive","short_name":"BP","longitude":"153.526028","latitude":"-28.185915","fuel_provided":[{"fuel_name":"Unleaded","price":99.0},{"fuel_name":"LPG","price":56.6}]},
{"id":"268","name":"BP Chinderah","short_name":"BP","longitude":"153.556828","latitude":"-28.227135","fuel_provided":[{"fuel_name":"Unleaded","price":102.5},{"fuel_name":"LPG","price":55.0}]},
{"id":"269","name":"BP Connect Chinderah","short_name":"BP","longitude":"153.557582","latitude":"-28.243748","fuel_provided":[{"fuel_name":"Unleaded","price":97.2},{"fuel_name":"LPG","price":56.1}]},
{"id":"270","name":"BP Hastings Point","short_name":"BP","longitude":"153.57303","latitude":"-28.355469","fuel_provided":[{"fuel_name":"Unleaded","price":100.1},{"fuel_name":"LPG","price":57.3}]},
{"id":"271","name":"Tom Thumb Service Station","short_name":"BP","longitude":"150.892416","latitude":"-34.430049","fuel_provided":[{"fuel_name":"Unleaded","price":97.6},{"fuel_name":"LPG","price":53.3}]},
{"id":"272","name":"BP Wollongong South","short_name":"BP","longitude":"150.872605","latitude":"-34.425454","fuel_provided":[{"fuel_name":"Unleaded","price":100.5},{"fuel_name":"LPG","price":56.4}]},
{"id":"273","name":"BP Wollongong","short_name":"BP","longitude":"150.872905","latitude":"-34.425056","fuel_provided":[{"fuel_name":"Unleaded","price":101.3},{"fuel_name":"LPG","price":53.4}]},
{"id":"274","name":"BP Warrawong","short_name":"BP","longitude":"150.887164","latitude":"-34.483784","fuel_provided":[{"fuel_name":"Unleaded","price":101.8},{"fuel_name":"LPG","price":56.4}]},
{"id":"275","name":"BP Port Kembla","short_name":"BP","longitude":"150.904866","latitude":"-34.483849","fuel_provided":[{"fuel_name":"Unleaded","price":98.1},{"fuel_name":"LPG","price":57.4}]},
{"id":"276","name":"BP Austinmer","short_name":"BP","longitude":"150.938834","latitude":"-34.30047","fuel_provided":[{"fuel_name":"Unleaded","price":102.4},{"fuel_name":"LPG","price":55.5}]},
{"id":"277","name":"BP Woonoona","short_name":"BP","longitude":"150.905462","latitude":"-34.341906","fuel_provided":[{"fuel_name":"Unleaded","price":99.2},{"fuel_name":"LPG","price":53.8}]},
{"id":"278","name":"BP Fairy Meadow","short_name":"BP","longitude":"150.891583","latitude":"-34.4033","fuel_provided":[{"fuel_name":"Unleaded","price":99.2},{"fuel_name":"LPG","price":57.2}]},
{"id":"279","name":"BP 2Go Albion Park","short_name":"BP","longitude":"150.790588","latitude":"-34.554498","fuel_provided":[{"fuel_name":"Unleaded","price":100.8},{"fuel_name":"LPG","price":54.5}]},
{"id":"280","name":"DSS Termeil","short_name":"BP","longitude":"150.33893","latitude":"-35.485533","fuel_provided":[{"fuel_name":"Unleaded","price":101.1},{"fuel_name":"LPG","price":57.9}]},
{"id":"281","name":"DSS WIDGIEMOOLTHA TAVERN & ROADHOUSE","short_name":"BP","longitude":"150.0643","latitude":"-36.41991","fuel_provided":[{"fuel_name":"Unleaded","price":99.9},{"fuel_name":"LPG","price":53.8}]},
{"id":"282","name":"BP Connect Eagle Vale","short_name":"BP","longitude":"150.816282","latitude":"-34.031183","fuel_provided":[{"fuel_name":"Unleaded","price":97.6},{"fuel_name":"LPG","price":55.7}]},
{"id":"283","name":"BP Connect Macarthur","short_name":"BP","longitude":"150.823322","latitude":"-34.053178","fuel_provided":[{"fuel_name":"Unleaded","price":102.9},{"fuel_name":"LPG","price":56.5}]},
{"id":"284","name":"BP Airds","short_name":"BP","longitude":"150.82876","latitude":"-34.08594","fuel_provided":[{"fuel_name":"Unleaded","price":100.3},{"fuel_name":"LPG","price":57.0}]},
{"id":"285","name":"BP Express Glenquarie","short_name":"BP","longitude":"150.893539","latitude":"-33.985124","fuel_provided":[{"fuel_name":"Unleaded","price":97.0},{"fuel_name":"LPG","price":55.2}]},
{"id":"286","name":"Denham Court Service Station","short_name":"BP","longitude":"150.846652","latitude":"-33.982309","fuel_provided":[{"fuel_name":"Unleaded","price":97.5},{"fuel_name":"LPG","price":56.6}]},
{"id":"287","name":"Narellan Service Station","short_name":"BP","longitude":"150.730953","latitude":"-34.041828","fuel_provided":[{"fuel_name":"Unleaded","price":100.2},{"fuel_name":"LPG","price":55.2}]},
{"id":"288","name":"The Oaks Garage Convenience Store","short_name":"BP","longitude":"150.57033","latitude":"-34.08015","fuel_provided":[{"fuel_name":"Unleaded","price":102.3},{"fuel_name":"LPG","price":53.8}]},
{"id":"289","name":"BP Picton","short_name":"BP","longitude":"150.60528","latitude":"-34.188108","fuel_provided":[{"fuel_name":"Unleaded","price":99.3},{"fuel_name":"LPG","price":56.2}]},
{"id":"290","name":"BP Bargo","short_name":"BP","longitude":"150.580039","latitude":"-34.292945","fuel_provided":[{"fuel_name":"Unleaded","price":99.3},{"fuel_name":"LPG","price":55.1}]},
{"id":"291","name":"Mittagong Depot","short_name":"BP","longitude":"150.433866","latitude":"-34.450075","fuel_provided":[{"fuel_name":"Unleaded","price":101.9},{"fuel_name":"LPG","price":52.1}]},
{"id":"292","name":"BP Bowral","short_name":"BP","longitude":"150.418799","latitude":"-34.47599","fuel_provided":[{"fuel_name":"Unleaded","price":102.6},{"fuel_name":"LPG","price":55.3}]},
{"id":"293","name":"Murray Tractor Importers","short_name":"BP","longitude":"150.595244","latitude":"-34.589222","fuel_provided":[{"fuel_name":"Unleaded","price":98.6},{"fuel_name":"LPG","price":54.1}]},
{"id":"294","name":"BP Express Marulan Northbound","short_name":"BP","longitude":"149.995109","latitude":"-34.719397","fuel_provided":[{"fuel_name":"Unleaded","price":99.1},{"fuel_name":"LPG","price":57.6}]},
{"id":"295","name":"BP Express Marulan Southbound","short_name":"BP","longitude":"150.001042","latitude":"-34.718471","fuel_provided":[{"fuel_name":"Unleaded","price":97.6},{"fuel_name":"LPG","price":57.0}]},
{"id":"296","name":"DSS SG CHAMBERS","short_name":"BP","longitude":"148.027167","latitude":"-34.641161","fuel_provided":[{"fuel_name":"Unleaded","price":99.1},{"fuel_name":"LPG","price":56.3}]},
{"id":"297","name":"BP Young","short_name":"BP","longitude":"148.30175","latitude":"-34.309989","fuel_provided":[{"fuel_name":"Unleaded","price":97.8},{"fuel_name":"LPG","price":55.2}]},
{"id":"298","name":"BP Braddon","short_name":"BP","longitude":"149.132747","latitude":"-35.275816","fuel_provided":[{"fuel_name":"Unleaded","price":97.6},{"fuel_name":"LPG","price":52.6}]},
{"id":"299","name":"BP Watson","short_name":"BP","longitude":"149.16583","latitude":"-35.22508","fuel_provided":[{"fuel_name":"Unleaded","price":102.1},{"fuel_name":"LPG","price":52.9}]},
{"id":"300","name":"BP Express Kingston (temporarily closed)","short_name":"BP","longitude":"149.138927","latitude":"-35.319916","fuel_provided":[{"fuel_name":"Unleaded","price":102.4},{"fuel_name":"LPG","price":54.6}]},
{"id":"301","name":"BP Express Phillip","short_name":"BP","longitude":"149.085246","latitude":"-35.351278","fuel_provided":[{"fuel_name":"Unleaded","price":97.0},{"fuel_name":"LPG","price":57.1}]},
{"id":"302","name":"BP Fyshwick","short_name":"BP","longitude":"149.16262","latitude":"-35.32996","fuel_provided":[{"fuel_name":"Unleaded","price":98.3},{"fuel_name":"LPG","price":52.4}]},
{"id":"303","name":"BP Jamison","short_name":"BP","longitude":"149.073181","latitude":"-35.253067","fuel_provided":[{"fuel_name":"Unleaded","price":99.2},{"fuel_name":"LPG","price":54.0}]},
{"id":"304","name":"BP Lowe Street","short_name":"BP","longitude":"149.23282","latitude":"-35.35494","fuel_provided":[{"fuel_name":"Unleaded","price":99.9},{"fuel_name":"LPG","price":53.5}]},
{"id":"305","name":"BP Jindabyne","short_name":"BP","longitude":"148.617709","latitude":"-36.414954","fuel_provided":[{"fuel_name":"Unleaded","price":98.2},{"fuel_name":"LPG","price":57.9}]},
{"id":"306","name":"Rhythym Snow Sports","short_name":"BP","longitude":"149.134713","latitude":"-36.230013","fuel_provided":[{"fuel_name":"Unleaded","price":101.8},{"fuel_name":"LPG","price":53.7}]},
{"id":"307","name":"Snowstop (Cooma Depot Retail Front)","short_name":"BP","longitude":"149.13547","latitude":"-36.22855","fuel_provided":[{"fuel_name":"Unleaded","price":98.8},{"fuel_name":"LPG","price":55.0}]},
{"id":"308","name":"BP Pine Valley","short_name":"BP","longitude":"149.053544","latitude":"-36.245788","fuel_provided":[{"fuel_name":"Unleaded","price":98.9},{"fuel_name":"LPG","price":53.8}]},
{"id":"309","name":"BP Border","short_name":"BP","longitude":"146.909319","latitude":"-36.088878","fuel_provided":[{"fuel_name":"Unleaded","price":101.7},{"fuel_name":"LPG","price":53.5}]},
{"id":"310","name":"DSS Albury","short_name":"BP","longitude":"146.925192","latitude":"-36.063896","fuel_provided":[{"fuel_name":"Unleaded","price":101.7},{"fuel_name":"LPG","price":54.4}]},
{"id":"311","name":"BP North Albury","short_name":"BP","longitude":"146.970913","latitude":"-36.035843","fuel_provided":[{"fuel_name":"Unleaded","price":97.1},{"fuel_name":"LPG","price":57.6}]},
{"id":"312","name":"DSS Port Pitstop","short_name":"BP","longitude":"142.57084","latitude":"-33.387435","fuel_provided":[{"fuel_name":"Unleaded","price":102.1},{"fuel_name":"LPG","price":54.8}]},
{"id":"313","name":"BP Wagga South","short_name":"BP","longitude":"147.354627","latitude":"-35.126255","fuel_provided":[{"fuel_name":"Unleaded","price":101.9},{"fuel_name":"LPG","price":53.7}]},
{"id":"314","name":"BP Wagga Wagga","short_name":"BP","longitude":"147.364025","latitude":"-35.11838","fuel_provided":[{"fuel_name":"Unleaded","price":97.9},{"fuel_name":"LPG","price":56.5}]},
{"id":"315","name":"Lockhart Roadhouse","short_name":"BP","longitude":"146.71264","latitude":"-35.222213","fuel_provided":[{"fuel_name":"Unleaded","price":101.1},{"fuel_name":"LPG","price":57.3}]},
{"id":"316","name":"BP Queanbeyan (Yass Rd)","short_name":"BP","longitude":"149.24431","latitude":"-35.34127","fuel_provided":[{"fuel_name":"Unleaded","price":101.3},{"fuel_name":"LPG","price":56.5}]},
{"id":"317","name":"TFD Access Barmedman","short_name":"BP","longitude":"146.9584","latitude":"-34.3314","fuel_provided":[{"fuel_name":"Unleaded","price":102.0},{"fuel_name":"LPG","price":52.1}]},
{"id":"318","name":"BP Beckhom Roadhouse","short_name":"BP","longitude":"146.95841","latitude":"-34.3314","fuel_provided":[{"fuel_name":"Unleaded","price":100.8},{"fuel_name":"LPG","price":55.3}]},
{"id":"319","name":"BP Temora","short_name":"BP","longitude":"147.535186","latitude":"-34.448874","fuel_provided":[{"fuel_name":"Unleaded","price":100.4},{"fuel_name":"LPG","price":52.5}]},
{"id":"320","name":"OPT Temora","short_name":"BP","longitude":"147.55038","latitude":"-34.447902","fuel_provided":[{"fuel_name":"Unleaded","price":100.0},{"fuel_name":"LPG","price":54.9}]},
{"id":"321","name":"Temora Fuel Distributors","short_name":"BP","longitude":"147.55295","latitude":"-34.4479","fuel_provided":[{"fuel_name":"Unleaded","price":101.3},{"fuel_name":"LPG","price":53.9}]},
{"id":"322","name":"BP Mid Western","short_name":"BP","longitude":"147.209138","latitude":"-33.923508","fuel_provided":[{"fuel_name":"Unleaded","price":101.6},{"fuel_name":"LPG","price":52.1}]},
{"id":"323","name":"BP West Lakes","short_name":"BP","longitude":"146.370091","latitude":"-33.299179","fuel_provided":[{"fuel_name":"Unleaded","price":102.7},{"fuel_name":"LPG","price":57.3}]},
{"id":"324","name":"Hilston DCA","short_name":"BP","longitude":"145.53855","latitude":"-33.488238","fuel_provided":[{"fuel_name":"Unleaded","price":99.0},{"fuel_name":"LPG","price":52.8}]},
{"id":"325","name":"Golden Apple Super Store","short_name":"BP","longitude":"146.41298","latitude":"-34.57413","fuel_provided":[{"fuel_name":"Unleaded","price":101.2},{"fuel_name":"LPG","price":56.8}]},
{"id":"326","name":"Darlington Point Truck Stop","short_name":"BP","longitude":"145.992379","latitude":"-34.594215","fuel_provided":[{"fuel_name":"Unleaded","price":98.7},{"fuel_name":"LPG","price":55.0}]},
{"id":"327","name":"BP Coly Roadhouse","short_name":"BP","longitude":"145.88258","latitude":"-34.805983","fuel_provided":[{"fuel_name":"Unleaded","price":97.5},{"fuel_name":"LPG","price":52.9}]},
{"id":"328","name":"Coleambally DCA","short_name":"BP","longitude":"145.89152","latitude":"-34.80269","fuel_provided":[{"fuel_name":"Unleaded","price":101.4},{"fuel_name":"LPG","price":52.3}]},
{"id":"329","name":"BP Deniliquin","short_name":"BP","longitude":"144.95204","latitude":"-35.53245","fuel_provided":[{"fuel_name":"Unleaded","price":98.5},{"fuel_name":"LPG","price":53.9}]},
{"id":"330","name":"DCA Deniliquin","short_name":"BP","longitude":"144.95204","latitude":"-35.53245","fuel_provided":[{"fuel_name":"Unleaded","price":98.4},{"fuel_name":"LPG","price":53.7}]},
{"id":"331","name":"Murray Goulburn Finley","short_name":"BP","longitude":"145.574652","latitude":"-35.651037","fuel_provided":[{"fuel_name":"Unleaded","price":102.1},{"fuel_name":"LPG","price":53.4}]},
{"id":"332","name":"BP Finley","short_name":"BP","longitude":"145.57519","latitude":"-35.645572","fuel_provided":[{"fuel_name":"Unleaded","price":98.6},{"fuel_name":"LPG","price":57.6}]},
{"id":"333","name":"BP Balranald DCA","short_name":"BP","longitude":"143.560277","latitude":"-34.660094","fuel_provided":[{"fuel_name":"Unleaded","price":97.2},{"fuel_name":"LPG","price":57.4}]},
{"id":"334","name":"BP Jerilderie","short_name":"BP","longitude":"145.719628","latitude":"-35.360783","fuel_provided":[{"fuel_name":"Unleaded","price":98.1},{"fuel_name":"LPG","price":52.5}]},
{"id":"335","name":"Talbingo Service Station","short_name":"BP","longitude":"148.297115","latitude":"-35.581124","fuel_provided":[{"fuel_name":"Unleaded","price":100.1},{"fuel_name":"LPG","price":55.2}]},
{"id":"336","name":"Jugiong Service Station","short_name":"BP","longitude":"148.343083","latitude":"-34.82226","fuel_provided":[{"fuel_name":"Unleaded","price":101.4},{"fuel_name":"LPG","price":53.6}]},
{"id":"337","name":"BP Moama","short_name":"BP","longitude":"144.754813","latitude":"-36.1112","fuel_provided":[{"fuel_name":"Unleaded","price":99.9},{"fuel_name":"LPG","price":53.6}]},
{"id":"338","name":"BP Barham","short_name":"BP","longitude":"144.1319","latitude":"-35.62026","fuel_provided":[{"fuel_name":"Unleaded","price":98.4},{"fuel_name":"LPG","price":55.4}]},
{"id":"339","name":"BP Buronga","short_name":"BP","longitude":"142.193086","latitude":"-34.173805","fuel_provided":[{"fuel_name":"Unleaded","price":100.3},{"fuel_name":"LPG","price":55.8}]},
{"id":"340","name":"BP Wallacia","short_name":"BP","longitude":"150.640861","latitude":"-33.864333","fuel_provided":[{"fuel_name":"Unleaded","price":101.4},{"fuel_name":"LPG","price":52.7}]},
{"id":"341","name":"BP Werrington","short_name":"BP","longitude":"150.758406","latitude":"-33.768105","fuel_provided":[{"fuel_name":"Unleaded","price":99.2},{"fuel_name":"LPG","price":55.5}]},
{"id":"342","name":"BP Jamison Town","short_name":"BP","longitude":"150.676462","latitude":"-33.769729","fuel_provided":[{"fuel_name":"Unleaded","price":102.6},{"fuel_name":"LPG","price":56.4}]},
{"id":"343","name":"BP Express Penrith","short_name":"BP","longitude":"150.692323","latitude":"-33.743757","fuel_provided":[{"fuel_name":"Unleaded","price":102.6},{"fuel_name":"LPG","price":53.6}]},
{"id":"344","name":"BP North Richmond","short_name":"BP","longitude":"150.72244","latitude":"-33.583052","fuel_provided":[{"fuel_name":"Unleaded","price":102.8},{"fuel_name":"LPG","price":53.9}]},
{"id":"345","name":"BP North Wilberforce","short_name":"BP","longitude":"150.830106","latitude":"-33.528784","fuel_provided":[{"fuel_name":"Unleaded","price":98.7},{"fuel_name":"LPG","price":56.8}]},
{"id":"346","name":"BP Mcgraths Hill","short_name":"BP","longitude":"150.833583","latitude":"-33.615273","fuel_provided":[{"fuel_name":"Unleaded","price":97.9},{"fuel_name":"LPG","price":52.4}]},
{"id":"347","name":"Pitt Town Convenience Store","short_name":"BP","longitude":"150.859677","latitude":"-33.58679","fuel_provided":[{"fuel_name":"Unleaded","price":99.8},{"fuel_name":"LPG","price":56.0}]},
{"id":"348","name":"BP Kurmond","short_name":"BP","longitude":"150.691218","latitude":"-33.550936","fuel_provided":[{"fuel_name":"Unleaded","price":98.5},{"fuel_name":"LPG","price":53.8}]},
{"id":"349","name":"Werrington Depot","short_name":"BP","longitude":"150.75824","latitude":"-33.767577","fuel_provided":[{"fuel_name":"Unleaded","price":100.0},{"fuel_name":"LPG","price":54.6}]},
{"id":"350","name":"BP Chatsworth","short_name":"BP","longitude":"150.77121","latitude":"-33.78133","fuel_provided":[{"fuel_name":"Unleaded","price":97.3},{"fuel_name":"LPG","price":52.4}]},
{"id":"351","name":"BP Connect St Marys","short_name":"BP","longitude":"150.781616","latitude":"-33.760059","fuel_provided":[{"fuel_name":"Unleaded","price":102.4},{"fuel_name":"LPG","price":54.1}]},
{"id":"352","name":"BP Connect Glendenning","short_name":"BP","longitude":"150.853351","latitude":"-33.737599","fuel_provided":[{"fuel_name":"Unleaded","price":102.7},{"fuel_name":"LPG","price":56.7}]},
{"id":"353","name":"BP Connect Quakers Hill","short_name":"BP","longitude":"150.892096","latitude":"-33.717535","fuel_provided":[{"fuel_name":"Unleaded","price":97.8},{"fuel_name":"LPG","price":55.7}]},
{"id":"354","name":"BP Parkway","short_name":"BP","longitude":"150.902453","latitude":"-33.729948","fuel_provided":[{"fuel_name":"Unleaded","price":99.0},{"fuel_name":"LPG","price":52.3}]},
{"id":"355","name":"Oakville Depot","short_name":"BP","longitude":"150.874438","latitude":"-33.615514","fuel_provided":[{"fuel_name":"Unleaded","price":98.8},{"fuel_name":"LPG","price":54.5}]},
{"id":"356","name":"Riverstone Service Station","short_name":"BP","longitude":"150.854639","latitude":"-33.664608","fuel_provided":[{"fuel_name":"Unleaded","price":100.8},{"fuel_name":"LPG","price":53.4}]},
{"id":"357","name":"BP Maraylya","short_name":"BP","longitude":"150.916658","latitude":"-33.59376","fuel_provided":[{"fuel_name":"Unleaded","price":100.4},{"fuel_name":"LPG","price":54.4}]},
{"id":"358","name":"BP Connect Woodcroft","short_name":"BP","longitude":"150.879815","latitude":"-33.747835","fuel_provided":[{"fuel_name":"Unleaded","price":102.6},{"fuel_name":"LPG","price":56.4}]},
{"id":"359","name":"BP Shalvey","short_name":"BP","longitude":"150.805365","latitude":"-33.729517","fuel_provided":[{"fuel_name":"Unleaded","price":98.8},{"fuel_name":"LPG","price":54.7}]},
{"id":"360","name":"BP Connect Minchinbury","short_name":"BP","longitude":"150.824544","latitude":"-33.782052","fuel_provided":[{"fuel_name":"Unleaded","price":98.2},{"fuel_name":"LPG","price":57.5}]},
{"id":"361","name":"BP Springwood","short_name":"BP","longitude":"150.581903","latitude":"-33.701901","fuel_provided":[{"fuel_name":"Unleaded","price":99.1},{"fuel_name":"LPG","price":52.7}]},
{"id":"362","name":"BP Katoomba","short_name":"BP","longitude":"150.317124","latitude":"-33.707091","fuel_provided":[{"fuel_name":"Unleaded","price":102.9},{"fuel_name":"LPG","price":56.9}]},
{"id":"363","name":"BP Wentworth Falls","short_name":"BP","longitude":"150.360206","latitude":"-33.711266","fuel_provided":[{"fuel_name":"Unleaded","price":102.2},{"fuel_name":"LPG","price":57.4}]},
{"id":"364","name":"Phillips Mini Mart (BP OBERON)","short_name":"BP","longitude":"149.860563","latitude":"-33.70488","fuel_provided":[{"fuel_name":"Unleaded","price":102.1},{"fuel_name":"LPG","price":54.7}]},
{"id":"365","name":"BP LITHGOW","short_name":"BP","longitude":"150.135024","latitude":"-33.484261","fuel_provided":[{"fuel_name":"Unleaded","price":102.1},{"fuel_name":"LPG","price":57.5}]},
{"id":"366","name":"Mt Lambie Service Station","short_name":"BP","longitude":"149.98751","latitude":"-33.45366","fuel_provided":[{"fuel_name":"Unleaded","price":98.6},{"fuel_name":"LPG","price":55.8}]},
{"id":"367","name":"Green's Mandurama","short_name":"BP","longitude":"149.072502","latitude":"-33.65134","fuel_provided":[{"fuel_name":"Unleaded","price":102.7},{"fuel_name":"LPG","price":57.3}]},
{"id":"368","name":"Grenfell Road DCA (Cowra)","short_name":"BP","longitude":"148.67337","latitude":"-33.83465","fuel_provided":[{"fuel_name":"Unleaded","price":98.6},{"fuel_name":"LPG","price":56.9}]},
{"id":"369","name":"BP Grenfell Road","short_name":"BP","longitude":"148.67337","latitude":"-33.83465","fuel_provided":[{"fuel_name":"Unleaded","price":97.6},{"fuel_name":"LPG","price":56.5}]},
{"id":"370","name":"Village Store","short_name":"BP","longitude":"149.546825","latitude":"-33.48643","fuel_provided":[{"fuel_name":"Unleaded","price":101.3},{"fuel_name":"LPG","price":57.9}]},
{"id":"371","name":"BP Stewart Street Bathurst.","short_name":"BP","longitude":"149.569213","latitude":"-33.417344","fuel_provided":[{"fuel_name":"Unleaded","price":99.2},{"fuel_name":"LPG","price":55.2}]},
{"id":"372","name":"BP Raglan","short_name":"BP","longitude":"149.605257","latitude":"-33.41881","fuel_provided":[{"fuel_name":"Unleaded","price":101.6},{"fuel_name":"LPG","price":56.6}]},
{"id":"373","name":"Go 24 Kelso","short_name":"BP","longitude":"149.607632","latitude":"-33.419277","fuel_provided":[{"fuel_name":"Unleaded","price":97.4},{"fuel_name":"LPG","price":57.8}]},
{"id":"374","name":"Blayney & United Sales & Service","short_name":"BP","longitude":"149.244477","latitude":"-33.527021","fuel_provided":[{"fuel_name":"Unleaded","price":99.4},{"fuel_name":"LPG","price":52.1}]},
{"id":"375","name":"OPT Kables (Orange)","short_name":"BP","longitude":"149.102626","latitude":"-33.28997","fuel_provided":[{"fuel_name":"Unleaded","price":98.1},{"fuel_name":"LPG","price":55.9}]},
{"id":"376","name":"Go 24 Bathurst Road","short_name":"BP","longitude":"149.108521","latitude":"-33.28971","fuel_provided":[{"fuel_name":"Unleaded","price":99.2},{"fuel_name":"LPG","price":55.6}]},
{"id":"377","name":"Go 24 Summer Street","short_name":"BP","longitude":"149.0952","latitude":"-33.28284","fuel_provided":[{"fuel_name":"Unleaded","price":102.0},{"fuel_name":"LPG","price":52.2}]},
{"id":"378","name":"Nangar Service Station","short_name":"BP","longitude":"148.66779","latitude":"-33.561455","fuel_provided":[{"fuel_name":"Unleaded","price":102.8},{"fuel_name":"LPG","price":54.7}]},
{"id":"379","name":"OPT Eugowra","short_name":"BP","longitude":"148.375514","latitude":"-33.431033","fuel_provided":[{"fuel_name":"Unleaded","price":102.0},{"fuel_name":"LPG","price":54.0}]},
{"id":"380","name":"Wyangala Service Station","short_name":"BP","longitude":"148.954431","latitude":"-33.962862","fuel_provided":[{"fuel_name":"Unleaded","price":103.0},{"fuel_name":"LPG","price":54.3}]},
{"id":"381","name":"Pattersons","short_name":"BP","longitude":"149.076837","latitude":"-32.806549","fuel_provided":[{"fuel_name":"Unleaded","price":102.1},{"fuel_name":"LPG","price":55.8}]},
{"id":"382","name":"BP Wellington","short_name":"BP","longitude":"148.94445","latitude":"-32.558133","fuel_provided":[{"fuel_name":"Unleaded","price":102.1},{"fuel_name":"LPG","price":53.1}]},
{"id":"383","name":"Nyngan Truck & Travellers Stop","short_name":"BP","longitude":"147.20005","latitude":"-31.563302","fuel_provided":[{"fuel_name":"Unleaded","price":99.6},{"fuel_name":"LPG","price":52.4}]},
{"id":"384","name":"OPT Gilgandra","short_name":"BP","longitude":"148.671418","latitude":"-31.708833","fuel_provided":[{"fuel_name":"Unleaded","price":97.1},{"fuel_name":"LPG","price":54.0}]},
{"id":"385","name":"BP Gilgandra","short_name":"BP","longitude":"148.671418","latitude":"-31.708833","fuel_provided":[{"fuel_name":"Unleaded","price":99.7},{"fuel_name":"LPG","price":58.0}]},
{"id":"386","name":"BP Dubbo Erskine Street","short_name":"BP","longitude":"148.610789","latitude":"-32.244217","fuel_provided":[{"fuel_name":"Unleaded","price":99.8},{"fuel_name":"LPG","price":55.3}]},
{"id":"387","name":"BP South Dubbo (DSS) ","short_name":"BP","longitude":"148.611782","latitude":"-32.25496","fuel_provided":[{"fuel_name":"Unleaded","price":100.9},{"fuel_name":"LPG","price":53.4}]},
{"id":"388","name":"BP West Dubbo","short_name":"BP","longitude":"148.58548","latitude":"-32.24165","fuel_provided":[{"fuel_name":"Unleaded","price":99.8},{"fuel_name":"LPG","price":52.2}]},
{"id":"389","name":"BP Dubbo West","short_name":"BP","longitude":"148.58965","latitude":"-32.252862","fuel_provided":[{"fuel_name":"Unleaded","price":97.6},{"fuel_name":"LPG","price":54.5}]},
{"id":"390","name":"BP PitStop Garage Geurie","short_name":"BP","longitude":"148.829144","latitude":"-32.397712","fuel_provided":[{"fuel_name":"Unleaded","price":100.2},{"fuel_name":"LPG","price":54.0}]},
{"id":"391","name":"Woodhams Roadhouse","short_name":"BP","longitude":"148.114558","latitude":"-30.03229","fuel_provided":[{"fuel_name":"Unleaded","price":98.1},{"fuel_name":"LPG","price":54.4}]},
{"id":"392","name":"OPT Walgett","short_name":"BP","longitude":"148.1172","latitude":"-30.0193","fuel_provided":[{"fuel_name":"Unleaded","price":97.9},{"fuel_name":"LPG","price":56.7}]},
{"id":"393","name":"Walgett Blue Star","short_name":"BP","longitude":"148.117216","latitude":"-30.01927","fuel_provided":[{"fuel_name":"Unleaded","price":100.1},{"fuel_name":"LPG","price":57.6}]},
{"id":"394","name":"Lightning Ridge Auto Village","short_name":"BP","longitude":"147.97984","latitude":"-29.429022","fuel_provided":[{"fuel_name":"Unleaded","price":99.0},{"fuel_name":"LPG","price":55.8}]},
{"id":"395","name":"Cobar Tyre Centre","short_name":"BP","longitude":"145.835947","latitude":"-31.497423","fuel_provided":[{"fuel_name":"Unleaded","price":99.0},{"fuel_name":"LPG","price":57.0}]},
{"id":"396","name":"OPT BP Cobar","short_name":"BP","longitude":"145.835947","latitude":"-31.497423","fuel_provided":[{"fuel_name":"Unleaded","price":101.8},{"fuel_name":"LPG","price":53.6}]},
{"id":"397","name":"Darling River Fuels","short_name":"BP","longitude":"143.375786","latitude":"-31.562352","fuel_provided":[{"fuel_name":"Unleaded","price":103.0},{"fuel_name":"LPG","price":54.7}]},
{"id":"398","name":"DSS BP FRANKS ","short_name":"BP","longitude":"145.947111","latitude":"-30.083755","fuel_provided":[{"fuel_name":"Unleaded","price":100.1},{"fuel_name":"LPG","price":54.7}]},
{"id":"399","name":"Black Stump Service Station","short_name":"BP","longitude":"149.715791","latitude":"-31.827519","fuel_provided":[{"fuel_name":"Unleaded","price":97.7},{"fuel_name":"LPG","price":56.2}]},
{"id":"400","name":"Coolah Depot","short_name":"BP","longitude":"149.72447","latitude":"-31.823019","fuel_provided":[{"fuel_name":"Unleaded","price":100.6},{"fuel_name":"LPG","price":55.0}]},
{"id":"401","name":"Dunedoo Service Station Centre","short_name":"BP","longitude":"149.398513","latitude":"-32.01634","fuel_provided":[{"fuel_name":"Unleaded","price":101.3},{"fuel_name":"LPG","price":56.8}]},
{"id":"402","name":"Portland Automotive","short_name":"BP","longitude":"149.980313","latitude":"-33.35305","fuel_provided":[{"fuel_name":"Unleaded","price":100.0},{"fuel_name":"LPG","price":53.8}]},
{"id":"403","name":"Price's Service Centre","short_name":"BP","longitude":"149.971205","latitude":"-32.795519","fuel_provided":[{"fuel_name":"Unleaded","price":98.3},{"fuel_name":"LPG","price":57.1}]},
{"id":"404","name":"BP Mudgee","short_name":"BP","longitude":"149.58799","latitude":"-32.59535","fuel_provided":[{"fuel_name":"Unleaded","price":101.3},{"fuel_name":"LPG","price":56.4}]},
{"id":"405","name":"OPT Mudgee","short_name":"BP","longitude":"149.59638","latitude":"-32.600594","fuel_provided":[{"fuel_name":"Unleaded","price":98.4},{"fuel_name":"LPG","price":56.6}]},
{"id":"406","name":"BP Gulgong","short_name":"BP","longitude":"149.532172","latitude":"-32.366702","fuel_provided":[{"fuel_name":"Unleaded","price":100.5},{"fuel_name":"LPG","price":56.6}]},
{"id":"407","name":"DPT Gulgong","short_name":"BP","longitude":"149.546172","latitude":"-32.3597","fuel_provided":[{"fuel_name":"Unleaded","price":102.8},{"fuel_name":"LPG","price":57.8}]},
{"id":"408","name":"Manildra Service Station","short_name":"BP","longitude":"148.69245","latitude":"-33.18565","fuel_provided":[{"fuel_name":"Unleaded","price":100.6},{"fuel_name":"LPG","price":53.8}]},
{"id":"409","name":"Cabonne Service Centre","short_name":"BP","longitude":"148.86933","latitude":"-33.09023","fuel_provided":[{"fuel_name":"Unleaded","price":101.7},{"fuel_name":"LPG","price":58.0}]},
{"id":"410","name":"Billabong Takeaway","short_name":"BP","longitude":"148.647902","latitude":"-32.75379","fuel_provided":[{"fuel_name":"Unleaded","price":101.1},{"fuel_name":"LPG","price":52.7}]},
{"id":"411","name":"BP Tomingley Store & Station","short_name":"BP","longitude":"148.2218","latitude":"-32.569775","fuel_provided":[{"fuel_name":"Unleaded","price":101.2},{"fuel_name":"LPG","price":55.7}]},
{"id":"412","name":"BP Parkes Truckstop","short_name":"BP","longitude":"148.17069","latitude":"-33.14299","fuel_provided":[{"fuel_name":"Unleaded","price":99.5},{"fuel_name":"LPG","price":52.7}]},
{"id":"413","name":"BP East End","short_name":"BP","longitude":"148.18466","latitude":"-33.142277","fuel_provided":[{"fuel_name":"Unleaded","price":101.2},{"fuel_name":"LPG","price":56.1}]},
{"id":"414","name":"OPT Forbes","short_name":"BP","longitude":"148.0096","latitude":"-33.3772","fuel_provided":[{"fuel_name":"Unleaded","price":97.5},{"fuel_name":"LPG","price":52.7}]},
{"id":"415","name":"BP Forbes","short_name":"BP","longitude":"148.0101","latitude":"-33.38137","fuel_provided":[{"fuel_name":"Unleaded","price":101.0},{"fuel_name":"LPG","price":56.3}]},
{"id":"416","name":"BF & DJ Quade","short_name":"BP","longitude":"147.710078","latitude":"-32.922074","fuel_provided":[{"fuel_name":"Unleaded","price":101.1},{"fuel_name":"LPG","price":52.4}]},
{"id":"417","name":"BP Condobolin","short_name":"BP","longitude":"147.15254","latitude":"-33.08521","fuel_provided":[{"fuel_name":"Unleaded","price":99.7},{"fuel_name":"LPG","price":54.2}]},
{"id":"418","name":"BP South Broken Hill","short_name":"BP","longitude":"141.459028","latitude":"-31.980892","fuel_provided":[{"fuel_name":"Unleaded","price":97.4},{"fuel_name":"LPG","price":56.9}]},
{"id":"419","name":"BP Express Chisholm","short_name":"BP","longitude":"149.128182","latitude":"-35.413093","fuel_provided":[{"fuel_name":"Unleaded","price":100.5},{"fuel_name":"LPG","price":53.4}]},
{"id":"420","name":"BP Connect Clarendon","short_name":"BP","longitude":"144.957661","latitude":"-37.82754","fuel_provided":[{"fuel_name":"Unleaded","price":100.9},{"fuel_name":"LPG","price":57.5}]},
{"id":"421","name":"BP Footscray","short_name":"BP","longitude":"144.902464","latitude":"-37.808407","fuel_provided":[{"fuel_name":"Unleaded","price":102.6},{"fuel_name":"LPG","price":57.3}]},
{"id":"422","name":"BP Whitehall","short_name":"BP","longitude":"144.903645","latitude":"-37.804667","fuel_provided":[{"fuel_name":"Unleaded","price":98.5},{"fuel_name":"LPG","price":55.1}]},
{"id":"423","name":"BP Williamstown","short_name":"BP","longitude":"144.886491","latitude":"-37.847954","fuel_provided":[{"fuel_name":"Unleaded","price":97.2},{"fuel_name":"LPG","price":56.4}]},
{"id":"424","name":"AA Braybrook","short_name":"BP","longitude":"144.856292","latitude":"-37.780382","fuel_provided":[{"fuel_name":"Unleaded","price":99.1},{"fuel_name":"LPG","price":55.7}]},
{"id":"425","name":"AA Sunshine","short_name":"BP","longitude":"144.830409","latitude":"-37.765438","fuel_provided":[{"fuel_name":"Unleaded","price":98.4},{"fuel_name":"LPG","price":57.4}]},
{"id":"426","name":"BP West Sunshine","short_name":"BP","longitude":"144.831374","latitude":"-37.791744","fuel_provided":[{"fuel_name":"Unleaded","price":100.9},{"fuel_name":"LPG","price":54.6}]},
{"id":"427","name":"BP Kealba","short_name":"BP","longitude":"144.82615","latitude":"-37.74175","fuel_provided":[{"fuel_name":"Unleaded","price":99.7},{"fuel_name":"LPG","price":56.7}]},
{"id":"428","name":"BP Connect Caroline Springs","short_name":"BP","longitude":"144.740964","latitude":"-37.755931","fuel_provided":[{"fuel_name":"Unleaded","price":97.7},{"fuel_name":"LPG","price":52.9}]},
{"id":"429","name":"AA Deer Park","short_name":"BP","longitude":"144.752899","latitude":"-37.762304","fuel_provided":[{"fuel_name":"Unleaded","price":97.5},{"fuel_name":"LPG","price":54.8}]},
{"id":"430","name":"BP Wyndham Vale","short_name":"BP","longitude":"144.63061","latitude":"-37.89202","fuel_provided":[{"fuel_name":"Unleaded","price":98.3},{"fuel_name":"LPG","price":55.2}]},
{"id":"431","name":"AA Brooklyn","short_name":"BP","longitude":"144.834968","latitude":"-37.82123","fuel_provided":[{"fuel_name":"Unleaded","price":98.6},{"fuel_name":"LPG","price":53.3}]},
{"id":"432","name":"BP Laverton","short_name":"BP","longitude":"144.782056","latitude":"-37.842232","fuel_provided":[{"fuel_name":"Unleaded","price":98.7},{"fuel_name":"LPG","price":55.3}]},
{"id":"433","name":"BP Energy Fuel Laverton","short_name":"BP","longitude":"144.818127","latitude":"-37.816738","fuel_provided":[{"fuel_name":"Unleaded","price":102.2},{"fuel_name":"LPG","price":55.9}]},
{"id":"434","name":"BP Point Cook","short_name":"BP","longitude":"144.755659","latitude":"-37.886358","fuel_provided":[{"fuel_name":"Unleaded","price":97.6},{"fuel_name":"LPG","price":54.4}]},
{"id":"435","name":"BP Tarneit","short_name":"BP","longitude":"144.68898","latitude":"-37.84805","fuel_provided":[{"fuel_name":"Unleaded","price":102.1},{"fuel_name":"LPG","price":57.9}]},
{"id":"436","name":"BP Wyndham","short_name":"BP","longitude":"144.70125","latitude":"-37.881306","fuel_provided":[{"fuel_name":"Unleaded","price":100.6},{"fuel_name":"LPG","price":57.8}]},
{"id":"437","name":"BP Werribee","short_name":"BP","longitude":"144.63643","latitude":"-37.90814","fuel_provided":[{"fuel_name":"Unleaded","price":101.6},{"fuel_name":"LPG","price":55.7}]},
{"id":"438","name":"AA Calder Inbound","short_name":"BP","longitude":"144.75309","latitude":"-37.66522","fuel_provided":[{"fuel_name":"Unleaded","price":100.2},{"fuel_name":"LPG","price":53.2}]},
{"id":"439","name":"AA Calder Outbound","short_name":"BP","longitude":"144.74764","latitude":"-37.665251","fuel_provided":[{"fuel_name":"Unleaded","price":103.0},{"fuel_name":"LPG","price":57.7}]},
{"id":"440","name":"BP Taylors Lakes","short_name":"BP","longitude":"144.796817","latitude":"-37.701246","fuel_provided":[{"fuel_name":"Unleaded","price":99.8},{"fuel_name":"LPG","price":53.6}]},
{"id":"441","name":"BP Moonee Ponds","short_name":"BP","longitude":"144.920088","latitude":"-37.759965","fuel_provided":[{"fuel_name":"Unleaded","price":101.0},{"fuel_name":"LPG","price":52.8}]},
{"id":"442","name":"BP Moonee Vale","short_name":"BP","longitude":"144.926166","latitude":"-37.75841","fuel_provided":[{"fuel_name":"Unleaded","price":101.4},{"fuel_name":"LPG","price":56.2}]},
{"id":"443","name":"BP Keilor Park Drive","short_name":"BP","longitude":"144.84954","latitude":"-37.72362","fuel_provided":[{"fuel_name":"Unleaded","price":97.1},{"fuel_name":"LPG","price":53.8}]},
{"id":"444","name":"AA Gladstone Park","short_name":"BP","longitude":"144.8859","latitude":"-37.689237","fuel_provided":[{"fuel_name":"Unleaded","price":98.5},{"fuel_name":"LPG","price":57.1}]},
{"id":"445","name":"BP Connect The Tulla","short_name":"BP","longitude":"144.854023","latitude":"-37.67048","fuel_provided":[{"fuel_name":"Unleaded","price":101.5},{"fuel_name":"LPG","price":52.6}]},
{"id":"446","name":"BP Glenroy","short_name":"BP","longitude":"144.916658","latitude":"-37.707935","fuel_provided":[{"fuel_name":"Unleaded","price":100.5},{"fuel_name":"LPG","price":53.4}]},
{"id":"447","name":"AA Carlton","short_name":"BP","longitude":"144.970798","latitude":"-37.797749","fuel_provided":[{"fuel_name":"Unleaded","price":100.4},{"fuel_name":"LPG","price":57.3}]},
{"id":"448","name":"BP Brunswick","short_name":"BP","longitude":"144.949365","latitude":"-37.769926","fuel_provided":[{"fuel_name":"Unleaded","price":98.0},{"fuel_name":"LPG","price":56.3}]},
{"id":"449","name":"BP Southvale","short_name":"BP","longitude":"144.94814","latitude":"-37.73966","fuel_provided":[{"fuel_name":"Unleaded","price":97.9},{"fuel_name":"LPG","price":53.2}]},
{"id":"450","name":"AA North Coburg","short_name":"BP","longitude":"144.963374","latitude":"-37.725507","fuel_provided":[{"fuel_name":"Unleaded","price":98.3},{"fuel_name":"LPG","price":53.0}]},
{"id":"451","name":"BP Fawkner","short_name":"BP","longitude":"144.961287","latitude":"-37.706892","fuel_provided":[{"fuel_name":"Unleaded","price":99.3},{"fuel_name":"LPG","price":57.6}]},
{"id":"452","name":"BP Campbellfield","short_name":"BP","longitude":"144.956754","latitude":"-37.683239","fuel_provided":[{"fuel_name":"Unleaded","price":98.6},{"fuel_name":"LPG","price":56.9}]},
{"id":"453","name":"BP Outbound","short_name":"BP","longitude":"144.948018","latitude":"-37.628827","fuel_provided":[{"fuel_name":"Unleaded","price":102.2},{"fuel_name":"LPG","price":54.0}]},
{"id":"454","name":"BP Craigieburn","short_name":"BP","longitude":"144.937558","latitude":"-37.592335","fuel_provided":[{"fuel_name":"Unleaded","price":101.0},{"fuel_name":"LPG","price":55.3}]},
{"id":"455","name":"AA Fitzroy","short_name":"BP","longitude":"144.979888","latitude":"-37.798336","fuel_provided":[{"fuel_name":"Unleaded","price":101.1},{"fuel_name":"LPG","price":52.7}]},
{"id":"456","name":"AA Pakenham","short_name":"BP","longitude":"145.453991","latitude":"-38.061889","fuel_provided":[{"fuel_name":"Unleaded","price":99.8},{"fuel_name":"LPG","price":55.7}]},
{"id":"457","name":"AA North Fitzroy","short_name":"BP","longitude":"144.984561","latitude":"-37.78218","fuel_provided":[{"fuel_name":"Unleaded","price":102.6},{"fuel_name":"LPG","price":54.4}]},
{"id":"458","name":"BP Rio","short_name":"BP","longitude":"144.994364","latitude":"-37.755929","fuel_provided":[{"fuel_name":"Unleaded","price":99.7},{"fuel_name":"LPG","price":57.2}]},
{"id":"459","name":"AA Preston","short_name":"BP","longitude":"144.998146","latitude":"-37.744377","fuel_provided":[{"fuel_name":"Unleaded","price":98.6},{"fuel_name":"LPG","price":52.6}]},
{"id":"460","name":"AA Reservoir","short_name":"BP","longitude":"145.021653","latitude":"-37.718629","fuel_provided":[{"fuel_name":"Unleaded","price":100.1},{"fuel_name":"LPG","price":55.9}]},
{"id":"461","name":"AA Thomastown - High Street","short_name":"BP","longitude":"145.012944","latitude":"-37.683837","fuel_provided":[{"fuel_name":"Unleaded","price":101.1},{"fuel_name":"LPG","price":56.1}]},
{"id":"462","name":"AA Thomastown - Keon Parade","short_name":"BP","longitude":"145.022203","latitude":"-37.695653","fuel_provided":[{"fuel_name":"Unleaded","price":98.8},{"fuel_name":"LPG","price":54.1}]},
{"id":"463","name":"BP Northpoint Truckstop","short_name":"BP","longitude":"144.992697","latitude":"-37.648015","fuel_provided":[{"fuel_name":"Unleaded","price":98.5},{"fuel_name":"LPG","price":55.5}]},
{"id":"464","name":"BP Connect Northpoint","short_name":"BP","longitude":"144.992897","latitude":"-37.648068","fuel_provided":[{"fuel_name":"Unleaded","price":97.7},{"fuel_name":"LPG","price":54.9}]},
{"id":"465","name":"AA Fairfield","short_name":"BP","longitude":"145.020033","latitude":"-37.783104","fuel_provided":[{"fuel_name":"Unleaded","price":98.5},{"fuel_name":"LPG","price":54.2}]},
{"id":"466","name":"AA Heidelberg West","short_name":"BP","longitude":"145.049403","latitude":"-37.752226","fuel_provided":[{"fuel_name":"Unleaded","price":98.6},{"fuel_name":"LPG","price":57.0}]},
{"id":"467","name":"AA Kingsbury","short_name":"BP","longitude":"145.036759","latitude":"-37.719732","fuel_provided":[{"fuel_name":"Unleaded","price":99.0},{"fuel_name":"LPG","price":55.1}]},
{"id":"468","name":"BP Bundoora","short_name":"BP","longitude":"145.045738","latitude":"-37.713475","fuel_provided":[{"fuel_name":"Unleaded","price":97.8},{"fuel_name":"LPG","price":53.0}]},
{"id":"469","name":"BP 2GO Watsonia","short_name":"BP","longitude":"145.083123","latitude":"-37.708411","fuel_provided":[{"fuel_name":"Unleaded","price":97.8},{"fuel_name":"LPG","price":54.2}]},
{"id":"470","name":"BP Greenleigh","short_name":"BP","longitude":"145.09948","latitude":"-37.704475","fuel_provided":[{"fuel_name":"Unleaded","price":100.5},{"fuel_name":"LPG","price":55.8}]},
{"id":"471","name":"BP 2GO Diamond Creek","short_name":"BP","longitude":"145.123019","latitude":"-37.680274","fuel_provided":[{"fuel_name":"Unleaded","price":101.5},{"fuel_name":"LPG","price":55.8}]},
{"id":"472","name":"BP Connect Eltham","short_name":"BP","longitude":"145.16079","latitude":"-37.704011","fuel_provided":[{"fuel_name":"Unleaded","price":101.3},{"fuel_name":"LPG","price":57.1}]},
{"id":"473","name":"AA Kew East","short_name":"BP","longitude":"145.063375","latitude":"-37.794868","fuel_provided":[{"fuel_name":"Unleaded","price":100.7},{"fuel_name":"LPG","price":56.4}]},
{"id":"474","name":"AA Templestowe","short_name":"BP","longitude":"145.114168","latitude":"-37.757047","fuel_provided":[{"fuel_name":"Unleaded","price":97.2},{"fuel_name":"LPG","price":56.7}]},
{"id":"475","name":"BP East Doncaster","short_name":"BP","longitude":"145.163826","latitude":"-37.780934","fuel_provided":[{"fuel_name":"Unleaded","price":99.3},{"fuel_name":"LPG","price":53.5}]},
{"id":"476","name":"AA Doncaster","short_name":"BP","longitude":"145.146681","latitude":"-37.787662","fuel_provided":[{"fuel_name":"Unleaded","price":101.0},{"fuel_name":"LPG","price":54.6}]},
{"id":"477","name":"BP Chirnside Park","short_name":"BP","longitude":"145.304865","latitude":"-37.764842","fuel_provided":[{"fuel_name":"Unleaded","price":98.4},{"fuel_name":"LPG","price":56.1}]},
{"id":"478","name":"AA Swan Street","short_name":"BP","longitude":"145.000166","latitude":"-37.826133","fuel_provided":[{"fuel_name":"Unleaded","price":99.4},{"fuel_name":"LPG","price":53.9}]},
{"id":"479","name":"AA Richmond - Church Street","short_name":"BP","longitude":"144.997132","latitude":"-37.831245","fuel_provided":[{"fuel_name":"Unleaded","price":98.5},{"fuel_name":"LPG","price":54.1}]},
{"id":"480","name":"AA Burwood","short_name":"BP","longitude":"145.104158","latitude":"-37.85044","fuel_provided":[{"fuel_name":"Unleaded","price":101.0},{"fuel_name":"LPG","price":53.4}]},
{"id":"481","name":"AA Box Hill","short_name":"BP","longitude":"145.116735","latitude":"-37.816899","fuel_provided":[{"fuel_name":"Unleaded","price":101.0},{"fuel_name":"LPG","price":53.0}]},
{"id":"482","name":"AA Box Hill South","short_name":"BP","longitude":"145.122212","latitude":"-37.828604","fuel_provided":[{"fuel_name":"Unleaded","price":99.5},{"fuel_name":"LPG","price":52.8}]},
{"id":"483","name":"BP Rooksby","short_name":"BP","longitude":"145.188756","latitude":"-37.836412","fuel_provided":[{"fuel_name":"Unleaded","price":99.0},{"fuel_name":"LPG","price":54.4}]},
{"id":"484","name":"BP Oban Road","short_name":"BP","longitude":"145.253892","latitude":"-37.798466","fuel_provided":[{"fuel_name":"Unleaded","price":101.2},{"fuel_name":"LPG","price":55.5}]},
{"id":"485","name":"AA Croydon","short_name":"BP","longitude":"145.284147","latitude":"-37.79934","fuel_provided":[{"fuel_name":"Unleaded","price":101.0},{"fuel_name":"LPG","price":54.2}]},
{"id":"486","name":"BP Mooroolbark","short_name":"BP","longitude":"145.328709","latitude":"-37.788917","fuel_provided":[{"fuel_name":"Unleaded","price":101.9},{"fuel_name":"LPG","price":55.3}]},
{"id":"487","name":"BP Lilydale","short_name":"BP","longitude":"145.38922","latitude":"-37.75769","fuel_provided":[{"fuel_name":"Unleaded","price":98.0},{"fuel_name":"LPG","price":56.4}]},
{"id":"488","name":"BP Malvern","short_name":"BP","longitude":"145.040678","latitude":"-37.857901","fuel_provided":[{"fuel_name":"Unleaded","price":99.3},{"fuel_name":"LPG","price":54.3}]},
{"id":"489","name":"BP East Malvern","short_name":"BP","longitude":"145.047994","latitude":"-37.8757","fuel_provided":[{"fuel_name":"Unleaded","price":98.7},{"fuel_name":"LPG","price":53.8}]},
{"id":"490","name":"AA Glen Iris","short_name":"BP","longitude":"145.066132","latitude":"-37.862073","fuel_provided":[{"fuel_name":"Unleaded","price":97.4},{"fuel_name":"LPG","price":57.8}]},
{"id":"491","name":"AA Chadstone","short_name":"BP","longitude":"145.08954","latitude":"-37.884547","fuel_provided":[{"fuel_name":"Unleaded","price":102.1},{"fuel_name":"LPG","price":52.3}]},
{"id":"492","name":"BP Mt Waverley","short_name":"BP","longitude":"145.10972","latitude":"-37.88278","fuel_provided":[{"fuel_name":"Unleaded","price":99.2},{"fuel_name":"LPG","price":53.7}]},
{"id":"493","name":"BP Fernhill","short_name":"BP","longitude":"145.123947","latitude":"-37.89879","fuel_provided":[{"fuel_name":"Unleaded","price":99.6},{"fuel_name":"LPG","price":54.3}]},
{"id":"494","name":"BP 2GO Tally Ho","short_name":"BP","longitude":"145.150981","latitude":"-37.860192","fuel_provided":[{"fuel_name":"Unleaded","price":98.1},{"fuel_name":"LPG","price":55.6}]},
{"id":"495","name":"AA Burwood East","short_name":"BP","longitude":"145.15166","latitude":"-37.852151","fuel_provided":[{"fuel_name":"Unleaded","price":102.1},{"fuel_name":"LPG","price":54.4}]},
{"id":"496","name":"AA Wantirna South","short_name":"BP","longitude":"145.232501","latitude":"-37.876335","fuel_provided":[{"fuel_name":"Unleaded","price":97.4},{"fuel_name":"LPG","price":55.7}]},
{"id":"497","name":"BP Heathmont","short_name":"BP","longitude":"145.261019","latitude":"-37.827353","fuel_provided":[{"fuel_name":"Unleaded","price":102.7},{"fuel_name":"LPG","price":53.6}]},
{"id":"498","name":"AA Bayswater","short_name":"BP","longitude":"145.270318","latitude":"-37.834857","fuel_provided":[{"fuel_name":"Unleaded","price":102.3},{"fuel_name":"LPG","price":57.0}]},
{"id":"499","name":"OPT Canning Vale","short_name":"BP","longitude":"115.930932","latitude":"-32.05961","fuel_provided":[{"fuel_name":"Unleaded","price":99.5},{"fuel_name":"LPG","price":52.9}]},
{"id":"500","name":"AA Ferntree Gully","short_name":"BP","longitude":"145.278391","latitude":"-37.882637","fuel_provided":[{"fuel_name":"Unleaded","price":100.8},{"fuel_name":"LPG","price":56.9}]},
{"id":"501","name":"BP Tecoma","short_name":"BP","longitude":"145.34263","latitude":"-37.906529","fuel_provided":[{"fuel_name":"Unleaded","price":98.5},{"fuel_name":"LPG","price":55.6}]},
{"id":"502","name":"IGA Express Caulfield","short_name":"BP","longitude":"145.019062","latitude":"-37.901098","fuel_provided":[{"fuel_name":"Unleaded","price":101.3},{"fuel_name":"LPG","price":55.6}]},
{"id":"503","name":"BP Plantation","short_name":"BP","longitude":"145.089809","latitude":"-37.89359","fuel_provided":[{"fuel_name":"Unleaded","price":101.8},{"fuel_name":"LPG","price":55.1}]},
{"id":"504","name":"BP Oakleigh","short_name":"BP","longitude":"145.090143","latitude":"-37.89286","fuel_provided":[{"fuel_name":"Unleaded","price":98.5},{"fuel_name":"LPG","price":57.0}]},
{"id":"505","name":"AA Oakleigh","short_name":"BP","longitude":"145.08561","latitude":"-37.908209","fuel_provided":[{"fuel_name":"Unleaded","price":102.6},{"fuel_name":"LPG","price":57.6}]},
{"id":"506","name":"BP Hughesdale","short_name":"BP","longitude":"145.07493","latitude":"-37.907925","fuel_provided":[{"fuel_name":"Unleaded","price":100.5},{"fuel_name":"LPG","price":53.5}]},
{"id":"507","name":"BP Midvale","short_name":"BP","longitude":"145.134711","latitude":"-37.919672","fuel_provided":[{"fuel_name":"Unleaded","price":97.6},{"fuel_name":"LPG","price":54.8}]},
{"id":"508","name":"BP Clayton South","short_name":"BP","longitude":"145.136199","latitude":"-37.960248","fuel_provided":[{"fuel_name":"Unleaded","price":97.8},{"fuel_name":"LPG","price":54.7}]},
{"id":"509","name":"BP Clayton","short_name":"BP","longitude":"145.120431","latitude":"-37.928975","fuel_provided":[{"fuel_name":"Unleaded","price":97.6},{"fuel_name":"LPG","price":57.8}]},
{"id":"510","name":"AA Mulgrave","short_name":"BP","longitude":"145.159333","latitude":"-37.918125","fuel_provided":[{"fuel_name":"Unleaded","price":99.1},{"fuel_name":"LPG","price":56.9}]},